[{"county":"Falls Church City","latitude":"38.882334","state":"VA","name":"Falls Church","longitude":"-77.1710914"},{"county":"Waynesboro City","latitude":"38.0684693","state":"VA","name":"Waynesboro","longitude":"-78.8894682"},{"county":"Middlesex","latitude":"37.6376402","state":"VA","name":"Urbanna","longitude":"-76.5743976"},{"county":"Loudoun","latitude":"39.1156615","state":"VA","name":"Leesburg","longitude":"-77.5636015"},{"county":"Loudoun","latitude":"38.9687211","state":"VA","name":"Middleburg","longitude":"-77.7355496"},{"county":"Prince William","latitude":"38.7956706","state":"VA","name":"Gainesville","longitude":"-77.6138802"},{"county":"Prince William","latitude":"38.7862257","state":"VA","name":"Loch Lomond","longitude":"-77.4780446"},{"county":"Westmoreland","latitude":"38.0951317","state":"VA","name":"Montross","longitude":"-76.8274644"},{"county":"Henrico","latitude":"37.665978","state":"VA","name":"Glen Allen","longitude":"-77.5063739"},{"county":"Wise","latitude":"36.9053822","state":"VA","name":"Saint Paul","longitude":"-82.3109761"},{"county":"Smyth","latitude":"36.7756734","state":"VA","name":"Sugar Grove","longitude":"-81.4123313"},{"county":"Smyth","latitude":"36.8815031","state":"VA","name":"Saltville","longitude":"-81.7620635"},{"county":"Rockingham","latitude":"38.7656693","state":"VA","name":"Bergton","longitude":"-78.948917"},{"county":"Page","latitude":"38.7651162","state":"VA","name":"Rileyville","longitude":"-78.3880612"},{"county":"Albemarle","latitude":"37.8865304","state":"VA","name":"Alberene","longitude":"-78.6164036"},{"county":"Northumberland","latitude":"37.8420743","state":"VA","name":"Reedville","longitude":"-76.2757772"},{"county":"Buchanan","latitude":"37.4203878","state":"VA","name":"Hurley","longitude":"-82.019848"},{"county":"Stafford","latitude":"38.3876256","state":"VA","name":"Brooke","longitude":"-77.3797047"},{"county":"Fairfax","latitude":"38.7903234","state":"VA","name":"Burke Centre","longitude":"-77.2998307"},{"county":"Fairfax","latitude":"38.7370165","state":"VA","name":"Newington Forest","longitude":"-77.233869"},{"county":"Halifax","latitude":"36.8326402","state":"VA","name":"Clover","longitude":"-78.7333385"},{"county":"Henrico","latitude":"37.6552358","state":"VA","name":"Innsbrook","longitude":"-77.5775051"},{"county":"Prince William","latitude":"38.6082415","state":"VA","name":"Neabsco","longitude":"-77.2846795"},{"county":"Albemarle","latitude":"37.8312533","state":"VA","name":"Esmont","longitude":"-78.607236"},{"county":"Northumberland","latitude":"37.9176323","state":"VA","name":"Heathsville","longitude":"-76.4721742"},{"county":"Amelia","latitude":"37.3429281","state":"VA","name":"Amelia Court House","longitude":"-77.9805579"},{"county":"Loudoun","latitude":"38.9517772","state":"VA","name":"Arcola","longitude":"-77.5341578"},{"county":"Fairfax","latitude":"38.9133116","state":"VA","name":"Franklin Farm","longitude":"-77.3968822"},{"county":"Augusta","latitude":"38.2262398","state":"VA","name":"Churchville","longitude":"-79.1622551"},{"county":"Albemarle","latitude":"38.1591523","state":"VA","name":"Piney Mountain","longitude":"-78.4155472"},{"county":"Nelson","latitude":"37.7598637","state":"VA","name":"Lovingston","longitude":"-78.870855"},{"county":"Accomack","latitude":"37.7626286","state":"VA","name":"Chase Crossing","longitude":"-75.6674293"},{"county":"Accomack","latitude":"37.6304096","state":"VA","name":"Pungoteague","longitude":"-75.8135423"},{"county":"Accomack","latitude":"37.6809644","state":"VA","name":"Savageville","longitude":"-75.7568744"},{"county":"Pulaski","latitude":"37.1909582","state":"VA","name":"Belspring","longitude":"-80.6081164"},{"county":"Bedford","latitude":"37.3845815","state":"VA","name":"Montvale","longitude":"-79.7311483"},{"county":"Richmond","latitude":"37.9501331","state":"VA","name":"Haynesville","longitude":"-76.6624565"},{"county":"Bedford","latitude":"37.1812536","state":"VA","name":"Moneta","longitude":"-79.6172536"},{"county":"James City","latitude":"37.2082034","state":"VA","name":"Jamestown","longitude":"-76.7741258"},{"county":"Russell","latitude":"36.8906667","state":"VA","name":"Rockdell","longitude":"-81.9537364"},{"county":"Pittsylvania","latitude":"36.7545812","state":"VA","name":"Dry Fork","longitude":"-79.3997472"},{"county":"Wythe","latitude":"36.820955","state":"VA","name":"Cripple Creek","longitude":"-81.0984225"},{"county":"Wythe","latitude":"36.9520642","state":"VA","name":"Kent","longitude":"-81.0186957"},{"county":"Greensville","latitude":"36.8223712","state":"VA","name":"Purdy","longitude":"-77.5880404"},{"county":"Patrick","latitude":"36.7898569","state":"VA","name":"Woolwine","longitude":"-80.2772753"},{"county":"Powhatan","latitude":"37.5420931","state":"VA","name":"Powhatan","longitude":"-77.9188882"},{"county":"Portsmouth City","latitude":"36.8354258","state":"VA","name":"Portsmouth","longitude":"-76.2982742"},{"county":"Clarke","latitude":"39.1517713","state":"VA","name":"Berryville","longitude":"-77.9822193"},{"county":"Shenandoah","latitude":"38.8070573","state":"VA","name":"Basye","longitude":"-78.7922437"},{"county":"Shenandoah","latitude":"38.9464989","state":"VA","name":"Toms Brook","longitude":"-78.4391741"},{"county":"Warren","latitude":"38.9181671","state":"VA","name":"Front Royal","longitude":"-78.1944446"},{"county":"Accomack","latitude":"37.7117971","state":"VA","name":"Onancock","longitude":"-75.7490966"},{"county":"Alleghany","latitude":"37.816239","state":"VA","name":"Clifton Forge","longitude":"-79.8244947"},{"county":"Lancaster","latitude":"37.6484693","state":"VA","name":"White Stone","longitude":"-76.3891131"},{"county":"Botetourt","latitude":"37.365135","state":"VA","name":"Cloverdale","longitude":"-79.9055952"},{"county":"Botetourt","latitude":"37.4181897","state":"VA","name":"Troutville","longitude":"-79.8747627"},{"county":"Henrico","latitude":"37.6429229","state":"VA","name":"Laurel","longitude":"-77.5088741"},{"county":"Campbell","latitude":"37.2768113","state":"VA","name":"Rustburg","longitude":"-79.1008543"},{"county":"Montgomery","latitude":"37.1684657","state":"VA","name":"Shawsville","longitude":"-80.2553212"},{"county":"Danville City","latitude":"36.5859718","state":"VA","name":"Danville","longitude":"-79.3950228"},{"county":"Fairfax","latitude":"38.8942786","state":"VA","name":"Chantilly","longitude":"-77.4310992"},{"county":"Fairfax","latitude":"38.782058","state":"VA","name":"Franconia","longitude":"-77.1463691"},{"county":"Prince William","latitude":"38.52252","state":"VA","name":"Quantico Base","longitude":"-77.3182507"},{"county":"Hanover","latitude":"37.6087561","state":"VA","name":"Mechanicsville","longitude":"-77.373314"},{"county":"Franklin","latitude":"36.9976403","state":"VA","name":"Rocky Mount","longitude":"-79.8919774"},{"county":"Southampton","latitude":"36.7109835","state":"VA","name":"Capron","longitude":"-77.1999676"},{"county":"Washington","latitude":"36.6337272","state":"VA","name":"Damascus","longitude":"-81.7837303"},{"county":"Lee","latitude":"36.6889777","state":"VA","name":"Jonesville","longitude":"-83.1110047"},{"county":"Fairfax","latitude":"38.8734456","state":"VA","name":"Greenbriar","longitude":"-77.4008204"},{"county":"Accomack","latitude":"37.908458","state":"VA","name":"Makemie Park","longitude":"-75.5702046"},{"county":"Accomack","latitude":"37.8929027","state":"VA","name":"Temperanceville","longitude":"-75.5471487"},{"county":"Isle of Wight","latitude":"36.9379264","state":"VA","name":"Benns Church","longitude":"-76.5860642"},{"county":"Mecklenburg","latitude":"36.7162527","state":"VA","name":"Union Level","longitude":"-78.2349969"},{"county":"New Kent","latitude":"37.5176453","state":"VA","name":"New Kent","longitude":"-76.9788557"},{"county":"Wythe","latitude":"36.8401228","state":"VA","name":"Ivanhoe","longitude":"-80.966748"},{"county":"Cumberland","latitude":"37.6673685","state":"VA","name":"Cartersville","longitude":"-78.0883328"},{"county":"Powhatan","latitude":"37.4751489","state":"VA","name":"Moseley","longitude":"-77.778885"},{"county":"Dinwiddie","latitude":"37.1959837","state":"VA","name":"Sutherland","longitude":"-77.5597107"},{"county":"Brunswick","latitude":"36.7790368","state":"VA","name":"Edgerton","longitude":"-77.7774916"},{"county":"Southampton","latitude":"36.7157055","state":"VA","name":"Drewryville","longitude":"-77.3063603"},{"county":"Lynchburg City","latitude":"37.4137536","state":"VA","name":"Lynchburg","longitude":"-79.1422464"},{"county":"Lunenburg","latitude":"36.9948743","state":"VA","name":"Victoria","longitude":"-78.22722"},{"county":"Loudoun","latitude":"39.1326051","state":"VA","name":"Round Hill","longitude":"-77.7686051"},{"county":"Shenandoah","latitude":"38.6478961","state":"VA","name":"New Market","longitude":"-78.6714064"},{"county":"Fairfax","latitude":"38.7476143","state":"VA","name":"Hybla Valley","longitude":"-77.0830337"},{"county":"Page","latitude":"38.665397","state":"VA","name":"Luray","longitude":"-78.4594522"},{"county":"Page","latitude":"38.4851245","state":"VA","name":"Shenandoah","longitude":"-78.625016"},{"county":"Rockbridge","latitude":"37.6340238","state":"VA","name":"Glasgow","longitude":"-79.4503137"},{"county":"Rockbridge","latitude":"37.9870728","state":"VA","name":"Goshen","longitude":"-79.4978197"},{"county":"Amherst","latitude":"37.5851412","state":"VA","name":"Amherst","longitude":"-79.0514134"},{"county":"Chesterfield","latitude":"37.2304283","state":"VA","name":"Matoaca","longitude":"-77.4774854"},{"county":"Appomattox","latitude":"37.264122","state":"VA","name":"Pamplin City","longitude":"-78.6819869"},{"county":"Nottoway","latitude":"37.1732075","state":"VA","name":"Crewe","longitude":"-78.1233329"},{"county":"Pulaski","latitude":"37.1056784","state":"VA","name":"Dublin","longitude":"-80.6853434"},{"county":"Russell","latitude":"37.016222","state":"VA","name":"Honaker","longitude":"-81.9742921"},{"county":"Loudoun","latitude":"39.0437192","state":"VA","name":"Ashburn","longitude":"-77.4874899"},{"county":"Loudoun","latitude":"38.9982555","state":"VA","name":"Moorefield Station","longitude":"-77.4968735"},{"county":"Stafford","latitude":"38.5065317","state":"VA","name":"Boswell's Corner","longitude":"-77.372408"},{"county":"Albemarle","latitude":"38.0308431","state":"VA","name":"Pantops","longitude":"-78.4444026"},{"county":"Accomack","latitude":"37.6092987","state":"VA","name":"Boston","longitude":"-75.8427096"},{"county":"Accomack","latitude":"37.9365128","state":"VA","name":"Oak Hall","longitude":"-75.5460372"},{"county":"Prince William","latitude":"38.7317825","state":"VA","name":"Buckhall","longitude":"-77.4310987"},{"county":"Cumberland","latitude":"37.4959842","state":"VA","name":"Cumberland","longitude":"-78.2452735"},{"county":"Lunenburg","latitude":"36.9609839","state":"VA","name":"Lunenburg","longitude":"-78.2655525"},{"county":"Rockingham","latitude":"38.5204001","state":"VA","name":"Linville","longitude":"-78.8375257"},{"county":"Madison","latitude":"38.5704011","state":"VA","name":"Nethers","longitude":"-78.2777804"},{"county":"Richmond","latitude":"37.8854129","state":"VA","name":"Farnham","longitude":"-76.6249557"},{"county":"Appomattox","latitude":"37.2634817","state":"VA","name":"Pamplin","longitude":"-78.682505"},{"county":"Campbell","latitude":"37.2337555","state":"VA","name":"Evington","longitude":"-79.2894688"},{"county":"Prince Edward","latitude":"37.2423746","state":"VA","name":"Hampden Sydney","longitude":"-78.4597173"},{"county":"Isle of Wight","latitude":"36.8659831","state":"VA","name":"Zuni","longitude":"-76.8307927"},{"county":"Halifax","latitude":"36.9351391","state":"VA","name":"Volens","longitude":"-79.0122369"},{"county":"Albemarle","latitude":"38.0576381","state":"VA","name":"Barracks","longitude":"-78.513346"},{"county":"Albemarle","latitude":"38.0762485","state":"VA","name":"Rio","longitude":"-78.4611222"},{"county":"Petersburg City","latitude":"37.2279279","state":"VA","name":"Petersburg","longitude":"-77.4019267"},{"county":"Virginia Beach City","latitude":"36.8529263","state":"VA","name":"Virginia Beach","longitude":"-75.977985"},{"county":"Fairfax","latitude":"38.8934448","state":"VA","name":"Dunn Loring","longitude":"-77.2216481"},{"county":"Fairfax","latitude":"38.8537233","state":"VA","name":"Mantua","longitude":"-77.2594273"},{"county":"Prince William","latitude":"38.6370622","state":"VA","name":"Dale City","longitude":"-77.3110946"},{"county":"Prince William","latitude":"38.687894","state":"VA","name":"Lake Ridge","longitude":"-77.2977618"},{"county":"Rappahannock","latitude":"38.713452","state":"VA","name":"Washington","longitude":"-78.159444"},{"county":"Alleghany","latitude":"37.7887382","state":"VA","name":"Low Moor","longitude":"-79.8836637"},{"county":"Northampton","latitude":"37.2895825","state":"VA","name":"Cheriton","longitude":"-75.9713209"},{"county":"Giles","latitude":"37.3315103","state":"VA","name":"Narrows","longitude":"-80.8111867"},{"county":"Tazewell","latitude":"37.3037273","state":"VA","name":"Pocahontas","longitude":"-81.3395459"},{"county":"Tazewell","latitude":"37.0931692","state":"VA","name":"Richlands","longitude":"-81.7937271"},{"county":"Sussex","latitude":"36.8143161","state":"VA","name":"Jarratt","longitude":"-77.468313"},{"county":"Washington","latitude":"36.7098335","state":"VA","name":"Abingdon","longitude":"-81.9773482"},{"county":"Lee","latitude":"36.6717532","state":"VA","name":"Rose Hill","longitude":"-83.3674054"},{"county":"Lee","latitude":"36.8017558","state":"VA","name":"Saint Charles","longitude":"-83.0573903"},{"county":"Henry","latitude":"36.7593037","state":"VA","name":"Bassett","longitude":"-79.9903195"},{"county":"Fredericksburg City","latitude":"38.3031837","state":"VA","name":"Fredericksburg","longitude":"-77.4605399"},{"county":"Accomack","latitude":"37.6042998","state":"VA","name":"Wachapreague","longitude":"-75.6896502"},{"county":"Emporia City","latitude":"36.6859829","state":"VA","name":"Emporia","longitude":"-77.5424809"},{"county":"Loudoun","latitude":"39.1981588","state":"VA","name":"Hillsboro","longitude":"-77.7227706"},{"county":"Shenandoah","latitude":"38.8209466","state":"VA","name":"Edinburg","longitude":"-78.5658453"},{"county":"Fairfax","latitude":"38.7118208","state":"VA","name":"Fort Belvoir","longitude":"-77.1459045"},{"county":"Fairfax","latitude":"38.7801142","state":"VA","name":"Clifton","longitude":"-77.3866535"},{"county":"Fauquier","latitude":"38.5337354","state":"VA","name":"Remington","longitude":"-77.8083266"},{"county":"Augusta","latitude":"38.288462","state":"VA","name":"Weyers Cave","longitude":"-78.9130826"},{"county":"Northampton","latitude":"37.267916","state":"VA","name":"Cape Charles","longitude":"-76.0174336"},{"county":"Tazewell","latitude":"37.252617","state":"VA","name":"Bluefield","longitude":"-81.2712105"},{"county":"Charlotte","latitude":"37.0565362","state":"VA","name":"Charlotte Court House","longitude":"-78.638334"},{"county":"Wise","latitude":"36.9439917","state":"VA","name":"Coeburn","longitude":"-82.4640401"},{"county":"Scott","latitude":"36.8284344","state":"VA","name":"Dungannon","longitude":"-82.4723742"},{"county":"Scott","latitude":"36.6228778","state":"VA","name":"Weber City","longitude":"-82.5620977"},{"county":"Manassas Park City","latitude":"38.7840035","state":"VA","name":"Manassas Park","longitude":"-77.4697111"},{"county":"Hampton City","latitude":"37.0298687","state":"VA","name":"Hampton","longitude":"-76.3452218"},{"county":"Chesapeake City","latitude":"36.8190369","state":"VA","name":"Chesapeake","longitude":"-76.2749399"},{"county":"Arlington","latitude":"38.8903896","state":"VA","name":"Arlington","longitude":"-77.0841446"},{"county":"Augusta","latitude":"38.1540221","state":"VA","name":"Crimora","longitude":"-78.8503021"},{"county":"Lancaster","latitude":"37.7104135","state":"VA","name":"Kilmarnock","longitude":"-76.379669"},{"county":"Henrico","latitude":"37.6037568","state":"VA","name":"Dumbarton","longitude":"-77.4913737"},{"county":"Wise","latitude":"36.9759345","state":"VA","name":"Wise","longitude":"-82.5757108"},{"county":"Brunswick","latitude":"36.8657034","state":"VA","name":"Alberta","longitude":"-77.8863857"},{"county":"Southampton","latitude":"36.7162613","state":"VA","name":"Courtland","longitude":"-77.0680195"},{"county":"Campbell","latitude":"37.1059753","state":"VA","name":"Naruna","longitude":"-79.0025166"},{"county":"Tazewell","latitude":"37.1909477","state":"VA","name":"Amonate","longitude":"-81.6387209"},{"county":"Fairfax","latitude":"39.0006651","state":"VA","name":"Dranesville","longitude":"-77.3458181"},{"county":"Accomack","latitude":"37.9790117","state":"VA","name":"New Church","longitude":"-75.5310365"},{"county":"Accomack","latitude":"37.7823504","state":"VA","name":"Whitesville","longitude":"-75.6629847"},{"county":"Halifax","latitude":"36.6209725","state":"VA","name":"Cluster Springs","longitude":"-78.9216766"},{"county":"Mecklenburg","latitude":"36.8154204","state":"VA","name":"Fairview","longitude":"-78.4666641"},{"county":"Charles City","latitude":"37.3434809","state":"VA","name":"Charles City","longitude":"-77.0730254"},{"county":"Charlottesville City","latitude":"38.0293059","state":"VA","name":"Charlottesville","longitude":"-78.4766781"},{"county":"Franklin City","latitude":"36.6776507","state":"VA","name":"Franklin","longitude":"-76.9224608"},{"county":"Loudoun","latitude":"39.2726017","state":"VA","name":"Lovettsville","longitude":"-77.636657"},{"county":"Fairfax","latitude":"38.7384477","state":"VA","name":"Newington","longitude":"-77.1849816"},{"county":"Fairfax","latitude":"38.8809451","state":"VA","name":"Oakton","longitude":"-77.3008172"},{"county":"Rockingham","latitude":"38.3820706","state":"VA","name":"Bridgewater","longitude":"-78.976696"},{"county":"Highland","latitude":"38.4123429","state":"VA","name":"Monterey","longitude":"-79.5806036"},{"county":"Stafford","latitude":"38.3240166","state":"VA","name":"Falmouth","longitude":"-77.4683177"},{"county":"Accomack","latitude":"37.7820725","state":"VA","name":"Parksley","longitude":"-75.6535401"},{"county":"Henrico","latitude":"37.6076456","state":"VA","name":"Lakeside","longitude":"-77.4769286"},{"county":"Giles","latitude":"37.3681764","state":"VA","name":"Glen Lyn","longitude":"-80.8642459"},{"county":"Giles","latitude":"37.3265112","state":"VA","name":"Pearisburg","longitude":"-80.7350712"},{"county":"Dickenson","latitude":"37.205387","state":"VA","name":"Haysi","longitude":"-82.2940326"},{"county":"Franklin","latitude":"37.0820871","state":"VA","name":"North Shore","longitude":"-79.6583639"},{"county":"Franklin","latitude":"37.1231974","state":"VA","name":"Westlake Corner","longitude":"-79.6994761"},{"county":"Winchester City","latitude":"39.1856597","state":"VA","name":"Winchester","longitude":"-78.1633341"},{"county":"Fairfax","latitude":"38.8303905","state":"VA","name":"Annandale","longitude":"-77.1963703"},{"county":"Fluvanna","latitude":"37.9231965","state":"VA","name":"Lake Monticello","longitude":"-78.3347288"},{"county":"Northampton","latitude":"37.3526369","state":"VA","name":"Eastville","longitude":"-75.945765"},{"county":"Roanoke","latitude":"37.3412463","state":"VA","name":"Hollins","longitude":"-79.9430952"},{"county":"Tazewell","latitude":"37.0870572","state":"VA","name":"Raven","longitude":"-81.8551195"},{"county":"Smyth","latitude":"36.8673392","state":"VA","name":"Atkins","longitude":"-81.4234428"},{"county":"Patrick","latitude":"36.6418034","state":"VA","name":"Patrick Springs","longitude":"-80.1950507"},{"county":"Rockingham","latitude":"38.4009588","state":"VA","name":"Spring Creek","longitude":"-79.0341977"},{"county":"King George","latitude":"38.2984607","state":"VA","name":"Weedonville","longitude":"-77.1585883"},{"county":"Northumberland","latitude":"37.8831862","state":"VA","name":"Burgess","longitude":"-76.3477246"},{"county":"Gloucester","latitude":"37.2801422","state":"VA","name":"Achilles","longitude":"-76.4402257"},{"county":"Giles","latitude":"37.2873468","state":"VA","name":"Eggleston","longitude":"-80.618674"},{"county":"Dinwiddie","latitude":"37.1393167","state":"VA","name":"Wilsons","longitude":"-77.865833"},{"county":"Halifax","latitude":"36.5731952","state":"VA","name":"Alton","longitude":"-79.0027897"},{"county":"Scott","latitude":"36.7745432","state":"VA","name":"Fort Blackmore","longitude":"-82.5868228"},{"county":"Patrick","latitude":"36.599025","state":"VA","name":"Ararat","longitude":"-80.5106192"},{"county":"Loudoun","latitude":"39.0409418","state":"VA","name":"Countryside","longitude":"-77.4135984"},{"county":"Fairfax","latitude":"38.725284","state":"VA","name":"Crosspointe","longitude":"-77.2638493"},{"county":"Fairfax","latitude":"38.7517808","state":"VA","name":"Hayfield","longitude":"-77.1358133"},{"county":"Fairfax","latitude":"38.8062241","state":"VA","name":"Kings Park","longitude":"-77.2433163"},{"county":"Nelson","latitude":"37.8904176","state":"VA","name":"Nellysford","longitude":"-78.8722444"},{"county":"Accomack","latitude":"37.7692947","state":"VA","name":"Metompkin","longitude":"-75.6027062"},{"county":"Buckingham","latitude":"37.651073","state":"VA","name":"Yogaville","longitude":"-78.693738"},{"county":"Rockingham","latitude":"38.4004036","state":"VA","name":"Massanetta Springs","longitude":"-78.8341922"},{"county":"Augusta","latitude":"38.2173532","state":"VA","name":"Harriston","longitude":"-78.832247"},{"county":"Newport News City","latitude":"36.9787588","state":"VA","name":"Newport News","longitude":"-76.428003"},{"county":"Galax City","latitude":"36.6612387","state":"VA","name":"Galax","longitude":"-80.9239671"},{"county":"Fairfax","latitude":"38.912889","state":"VA","name":"Pimmit Hills","longitude":"-77.2008141"},{"county":"Fairfax","latitude":"38.704282","state":"VA","name":"Lorton","longitude":"-77.2277604"},{"county":"Prince William","latitude":"38.783726","state":"VA","name":"Bull Run","longitude":"-77.5205454"},{"county":"Augusta","latitude":"38.0034669","state":"VA","name":"Greenville","longitude":"-79.1558633"},{"county":"Henrico","latitude":"37.6984781","state":"VA","name":"Wyndham","longitude":"-77.6124884"},{"county":"Chesterfield","latitude":"37.5248695","state":"VA","name":"Bon Air","longitude":"-77.5577654"},{"county":"Southampton","latitude":"36.583207","state":"VA","name":"Boykins","longitude":"-77.1999675"},{"county":"Mecklenburg","latitude":"36.7993087","state":"VA","name":"Chase City","longitude":"-78.458331"},{"county":"Nelson","latitude":"37.7051404","state":"VA","name":"Piney River","longitude":"-79.0230808"},{"county":"Alleghany","latitude":"37.8865138","state":"VA","name":"Falling Spring","longitude":"-79.9795021"},{"county":"Lancaster","latitude":"37.73014","state":"VA","name":"Mollusk","longitude":"-76.5380078"},{"county":"Bland","latitude":"37.2423406","state":"VA","name":"Rocky Gap","longitude":"-81.1073129"},{"county":"Floyd","latitude":"37.037912","state":"VA","name":"Simpsons","longitude":"-80.2044864"},{"county":"Henry","latitude":"36.6198599","state":"VA","name":"Spencer","longitude":"-80.0072657"},{"county":"Grayson","latitude":"36.7287362","state":"VA","name":"Stevens Creek","longitude":"-80.998971"},{"county":"Loudoun","latitude":"39.0062204","state":"VA","name":"Sterling","longitude":"-77.4285992"},{"county":"Fairfax","latitude":"38.853038","state":"VA","name":"Fair Lakes","longitude":"-77.388562"},{"county":"Accomack","latitude":"37.710408","state":"VA","name":"Tasley","longitude":"-75.7004848"},{"county":"Pulaski","latitude":"36.9687335","state":"VA","name":"Hiwassee","longitude":"-80.7136789"},{"county":"Fairfax","latitude":"38.716626","state":"VA","name":"Laurel Hill","longitude":"-77.23686"},{"county":"Rappahannock","latitude":"38.7628945","state":"VA","name":"Flint Hill","longitude":"-78.0999983"},{"county":"Albemarle","latitude":"38.1548563","state":"VA","name":"Free Union","longitude":"-78.5644593"},{"county":"Sussex","latitude":"36.91515","state":"VA","name":"Sussex","longitude":"-77.2791383"},{"county":"Smyth","latitude":"36.8103931","state":"VA","name":"Seven Mile Ford","longitude":"-81.6295618"},{"county":"Southampton","latitude":"36.5916185","state":"VA","name":"Southampton Meadows","longitude":"-76.9292887"},{"county":"Fairfax","latitude":"38.7776137","state":"VA","name":"Rose Hill Farms","longitude":"-77.1130346"},{"county":"Fauquier","latitude":"38.4490151","state":"VA","name":"Goldvein","longitude":"-77.655267"},{"county":"Bath","latitude":"37.9609592","state":"VA","name":"Healing Springs","longitude":"-79.8625536"},{"county":"Rockbridge","latitude":"37.9284647","state":"VA","name":"Brownsburg","longitude":"-79.3192018"},{"county":"Middlesex","latitude":"37.5512484","state":"VA","name":"Hartfield","longitude":"-76.4460588"},{"county":"Buchanan","latitude":"37.2931655","state":"VA","name":"Harman","longitude":"-82.2020833"},{"county":"Dickenson","latitude":"37.0145499","state":"VA","name":"Trammel","longitude":"-82.2937535"},{"county":"Bland","latitude":"37.1520626","state":"VA","name":"Bastian","longitude":"-81.1500931"},{"county":"Pittsylvania","latitude":"36.7804147","state":"VA","name":"Spring Garden","longitude":"-79.3047443"},{"county":"Fairfax","latitude":"38.762412","state":"VA","name":"Kingstowne","longitude":"-77.1444394"},{"county":"Fauquier","latitude":"38.5717898","state":"VA","name":"Bealeton","longitude":"-77.7638815"},{"county":"Pulaski","latitude":"37.2051248","state":"VA","name":"Parrott","longitude":"-80.615617"},{"county":"Hanover","latitude":"37.766531","state":"VA","name":"Hanover","longitude":"-77.3702584"},{"county":"Tazewell","latitude":"37.1348383","state":"VA","name":"Gratton","longitude":"-81.4139949"},{"county":"Pittsylvania","latitude":"36.6784708","state":"VA","name":"Mount Hermon","longitude":"-79.422247"},{"county":"Covington City","latitude":"37.7934585","state":"VA","name":"Covington","longitude":"-79.9939463"},{"county":"Fairfax","latitude":"38.8042798","state":"VA","name":"North Springfield","longitude":"-77.2047041"},{"county":"Fairfax","latitude":"38.8720564","state":"VA","name":"Seven Corners","longitude":"-77.1552577"},{"county":"Rockingham","latitude":"38.6390069","state":"VA","name":"Timberville","longitude":"-78.7739112"},{"county":"Culpeper","latitude":"38.4731815","state":"VA","name":"Culpeper","longitude":"-77.9966639"},{"county":"Augusta","latitude":"38.1090237","state":"VA","name":"Dooms","longitude":"-78.8575238"},{"county":"Augusta","latitude":"38.1098549","state":"VA","name":"Jolivue","longitude":"-79.0730842"},{"county":"Augusta","latitude":"38.0293036","state":"VA","name":"Lyndhurst","longitude":"-78.9450242"},{"county":"Westmoreland","latitude":"38.2545737","state":"VA","name":"Colonial Beach","longitude":"-76.9635831"},{"county":"Nottoway","latitude":"37.080428","state":"VA","name":"Blackstone","longitude":"-77.9972259"},{"county":"Charlotte","latitude":"36.9929252","state":"VA","name":"Drakes Branch","longitude":"-78.6011098"},{"county":"Surry","latitude":"37.1379265","state":"VA","name":"Surry","longitude":"-76.8352384"},{"county":"Franklin","latitude":"37.0187539","state":"VA","name":"Union Hall","longitude":"-79.6864187"},{"county":"Southampton","latitude":"36.5704293","state":"VA","name":"Branchville","longitude":"-77.2485797"},{"county":"Carroll","latitude":"36.5895764","state":"VA","name":"Cana","longitude":"-80.6717346"},{"county":"Henry","latitude":"36.5768047","state":"VA","name":"Ridgeway","longitude":"-79.8583721"},{"county":"Botetourt","latitude":"37.7529064","state":"VA","name":"Glen Wilton","longitude":"-79.8189383"},{"county":"James City","latitude":"37.3798686","state":"VA","name":"Toano","longitude":"-76.8041276"},{"county":"Tazewell","latitude":"37.1134458","state":"VA","name":"Red Ash","longitude":"-81.8709534"},{"county":"Washington","latitude":"36.6528856","state":"VA","name":"Wallace","longitude":"-82.1279092"},{"county":"Washington","latitude":"36.7603903","state":"VA","name":"Meadowview","longitude":"-81.8629019"},{"county":"Loudoun","latitude":"38.9839987","state":"VA","name":"Oak Grove","longitude":"-77.403876"},{"county":"Augusta","latitude":"38.1965155","state":"VA","name":"Deerfield","longitude":"-79.406707"},{"county":"Accomack","latitude":"37.8459594","state":"VA","name":"Mappsville","longitude":"-75.5665939"},{"county":"Mecklenburg","latitude":"36.6890305","state":"VA","name":"Baskerville","longitude":"-78.2747191"},{"county":"Rappahannock","latitude":"38.6570651","state":"VA","name":"Sperryville","longitude":"-78.2261122"},{"county":"Rockbridge","latitude":"37.7929098","state":"VA","name":"East Lexington","longitude":"-79.4253153"},{"county":"King and Queen","latitude":"37.6698646","state":"VA","name":"King and Queen Court House","longitude":"-76.8774644"},{"county":"Bland","latitude":"37.1020628","state":"VA","name":"Bland","longitude":"-81.1162022"},{"county":"Rockingham","latitude":"38.4154042","state":"VA","name":"Newtown","longitude":"-78.5980706"},{"county":"Albemarle","latitude":"38.0129175","state":"VA","name":"Shadwell","longitude":"-78.3955647"},{"county":"Bath","latitude":"38.0129038","state":"VA","name":"Mitchelltown","longitude":"-79.8114409"},{"county":"Northumberland","latitude":"37.8151336","state":"VA","name":"Wicomico Church","longitude":"-76.3777253"},{"county":"Chesterfield","latitude":"37.5059814","state":"VA","name":"Midlothian","longitude":"-77.6491578"},{"county":"Roanoke","latitude":"37.200693","state":"VA","name":"Starkey","longitude":"-79.9986485"},{"county":"Tazewell","latitude":"37.0981725","state":"VA","name":"Burkes Garden","longitude":"-81.3409367"},{"county":"Isle of Wight","latitude":"36.7723721","state":"VA","name":"Walters","longitude":"-76.849404"},{"county":"Loudoun","latitude":"39.0648297","state":"VA","name":"Belmont","longitude":"-77.5099901"},{"county":"Loudoun","latitude":"38.9820541","state":"VA","name":"Brambleton","longitude":"-77.5386025"},{"county":"Loudoun","latitude":"38.9209446","state":"VA","name":"South Riding","longitude":"-77.5038795"},{"county":"Fauquier","latitude":"38.6537308","state":"VA","name":"Catlett","longitude":"-77.6405458"},{"county":"Augusta","latitude":"38.0512424","state":"VA","name":"Middlebrook","longitude":"-79.2139214"},{"county":"Accomack","latitude":"37.90068","state":"VA","name":"Atlantic","longitude":"-75.5077034"},{"county":"Accomack","latitude":"37.6509648","state":"VA","name":"Bobtown","longitude":"-75.7932641"},{"county":"Accomack","latitude":"37.6617976","state":"VA","name":"Harborton","longitude":"-75.8304875"},{"county":"Accomack","latitude":"37.7787395","state":"VA","name":"Lee Mont","longitude":"-75.6810405"},{"county":"Mecklenburg","latitude":"36.8182185","state":"VA","name":"Thynedale","longitude":"-78.4774681"},{"county":"Roanoke","latitude":"37.2740227","state":"VA","name":"Glenvar","longitude":"-80.1339304"},{"county":"Nottoway","latitude":"37.1307068","state":"VA","name":"Nottoway Court House","longitude":"-78.0766679"},{"county":"Smyth","latitude":"36.8142824","state":"VA","name":"McMullin","longitude":"-81.5781717"},{"county":"Fairfax","latitude":"38.9187222","state":"VA","name":"Tysons Corner","longitude":"-77.2310925"},{"county":"Rockingham","latitude":"38.3570713","state":"VA","name":"Mount Crawford","longitude":"-78.9408615"},{"county":"Greene","latitude":"38.2973519","state":"VA","name":"Stanardsville","longitude":"-78.4400099"},{"county":"Richmond","latitude":"37.9587447","state":"VA","name":"Warsaw","longitude":"-76.7580139"},{"county":"Botetourt","latitude":"37.4992986","state":"VA","name":"Fincastle","longitude":"-79.8772647"},{"county":"Northampton","latitude":"37.5318008","state":"VA","name":"Exmore","longitude":"-75.8229859"},{"county":"Buchanan","latitude":"37.2323331","state":"VA","name":"Vansant","longitude":"-82.0990227"},{"county":"Campbell","latitude":"37.1118094","state":"VA","name":"Altavista","longitude":"-79.285579"},{"county":"Campbell","latitude":"37.0501416","state":"VA","name":"Brookneal","longitude":"-78.9441801"},{"county":"Lunenburg","latitude":"36.9620944","state":"VA","name":"Kenbridge","longitude":"-78.125"},{"county":"Wythe","latitude":"36.9484528","state":"VA","name":"Wytheville","longitude":"-81.084811"},{"county":"Lee","latitude":"36.7775909","state":"VA","name":"Dryden","longitude":"-82.9415532"},{"county":"Patrick","latitude":"36.6409697","state":"VA","name":"Stuart","longitude":"-80.2656091"},{"county":"Fairfax City","latitude":"38.8462236","state":"VA","name":"Fairfax","longitude":"-77.3063733"},{"county":"Lee","latitude":"36.6367525","state":"VA","name":"Ewing","longitude":"-83.4315742"},{"county":"Fairfax","latitude":"38.9012225","state":"VA","name":"Vienna","longitude":"-77.2652604"},{"county":"Suffolk City","latitude":"36.7282054","state":"VA","name":"Suffolk","longitude":"-76.5835621"},{"county":"Bristol City","latitude":"36.5964948","state":"VA","name":"Bristol","longitude":"-82.1884666"},{"county":"Prince William","latitude":"38.5676202","state":"VA","name":"Dumfries","longitude":"-77.3280382"},{"county":"Rockingham","latitude":"38.4095701","state":"VA","name":"Massanutten","longitude":"-78.7378004"},{"county":"Rockingham","latitude":"38.4148475","state":"VA","name":"Dayton","longitude":"-78.9386397"},{"county":"Stafford","latitude":"38.4626238","state":"VA","name":"Aquia Harbour","longitude":"-77.3888714"},{"county":"Louisa","latitude":"38.0251394","state":"VA","name":"Louisa","longitude":"-78.0041649"},{"county":"Surry","latitude":"37.2279264","state":"VA","name":"Claremont","longitude":"-76.9641321"},{"county":"Pittsylvania","latitude":"36.9537526","state":"VA","name":"Gretna","longitude":"-79.3589134"},{"county":"Lee","latitude":"36.7584219","state":"VA","name":"Pennington Gap","longitude":"-83.0271115"},{"county":"Warren","latitude":"38.8317812","state":"VA","name":"Bentonville","longitude":"-78.3163924"},{"county":"Highland","latitude":"38.3356787","state":"VA","name":"McDowell","longitude":"-79.4905999"},{"county":"King and Queen","latitude":"37.8837494","state":"VA","name":"Owenton","longitude":"-77.1002509"},{"county":"Goochland","latitude":"37.7176452","state":"VA","name":"Elk Hill","longitude":"-78.0874993"},{"county":"Goochland","latitude":"37.6015357","state":"VA","name":"Manakin","longitude":"-77.7022145"},{"county":"Buckingham","latitude":"37.7093108","state":"VA","name":"Centenary","longitude":"-78.5113969"},{"county":"Buchanan","latitude":"37.1984446","state":"VA","name":"Mavisdale","longitude":"-82.0079064"},{"county":"Mathews","latitude":"37.3659708","state":"VA","name":"Susan","longitude":"-76.3135536"},{"county":"Wise","latitude":"37.0067642","state":"VA","name":"Pardee","longitude":"-82.7515492"},{"county":"Smyth","latitude":"36.8942807","state":"VA","name":"Allison Gap","longitude":"-81.7767859"},{"county":"Henrico","latitude":"37.62605374","state":"VA","name":"Chamberlayne Heights","longitude":"-77.43614529"},{"county":"Loudoun","latitude":"38.9802762","state":"VA","name":"Loudoun Valley Estates","longitude":"-77.5082001"},{"county":"Loudoun","latitude":"39.0570523","state":"VA","name":"University Center","longitude":"-77.4441548"},{"county":"Fairfax","latitude":"38.86598","state":"VA","name":"Fair Oaks","longitude":"-77.36864"},{"county":"Fairfax","latitude":"38.8151771","state":"VA","name":"Kings Park West","longitude":"-77.2959863"},{"county":"Fauquier","latitude":"38.5995665","state":"VA","name":"Midland","longitude":"-77.7244362"},{"county":"Accomack","latitude":"38.0115107","state":"VA","name":"Greenbackville","longitude":"-75.3901972"},{"county":"Accomack","latitude":"37.5776335","state":"VA","name":"Mappsburg","longitude":"-75.7635403"},{"county":"Montgomery","latitude":"37.0665181","state":"VA","name":"Riner","longitude":"-80.4406068"},{"county":"Pulaski","latitude":"37.0326262","state":"VA","name":"Snowville","longitude":"-80.5611687"},{"county":"Shenandoah","latitude":"38.9298326","state":"VA","name":"Maurertown","longitude":"-78.4636193"},{"county":"Bath","latitude":"37.9995703","state":"VA","name":"Hot Springs","longitude":"-79.8317193"},{"county":"Middlesex","latitude":"37.6059738","state":"VA","name":"Saluda","longitude":"-76.5949538"},{"county":"Frederick","latitude":"39.2545467","state":"VA","name":"Brucetown","longitude":"-78.0666659"},{"county":"Essex","latitude":"37.8045832","state":"VA","name":"Center Cross","longitude":"-76.7788496"},{"county":"Hanover","latitude":"37.9223616","state":"VA","name":"Hewlett","longitude":"-77.5763744"},{"county":"Amherst","latitude":"37.5020857","state":"VA","name":"Monroe","longitude":"-79.1278031"},{"county":"Chesterfield","latitude":"37.3770935","state":"VA","name":"Chesterfield","longitude":"-77.5058196"},{"county":"Tazewell","latitude":"37.1848355","state":"VA","name":"Jewell Ridge","longitude":"-81.7884472"},{"county":"Pittsylvania","latitude":"36.9429172","state":"VA","name":"Mount Airy","longitude":"-79.192242"},{"county":"Accomack","latitude":"37.9340125","state":"VA","name":"Wattsville","longitude":"-75.4996473"},{"county":"Chesterfield","latitude":"37.4320932","state":"VA","name":"Brandermill","longitude":"-77.6497139"},{"county":"Prince William","latitude":"38.6916277","state":"VA","name":"County Center","longitude":"-77.3506202"},{"county":"King George","latitude":"38.2973496","state":"VA","name":"Passapatanzy","longitude":"-77.3141477"},{"county":"King George","latitude":"38.3402564","state":"VA","name":"Dahlgren Center","longitude":"-77.0321144"},{"county":"Sussex","latitude":"36.9682064","state":"VA","name":"Wakefield","longitude":"-76.989683"},{"county":"Norfolk City","latitude":"36.8468146","state":"VA","name":"Norfolk","longitude":"-76.2852183"},{"county":"Fairfax","latitude":"38.7328926","state":"VA","name":"Fort Hunt","longitude":"-77.0580327"},{"county":"Prince William","latitude":"38.7928924","state":"VA","name":"Sudley","longitude":"-77.4974897"},{"county":"Page","latitude":"38.5754001","state":"VA","name":"Stanley","longitude":"-78.5025089"},{"county":"Augusta","latitude":"38.2020754","state":"VA","name":"Verona","longitude":"-79.0083615"},{"county":"Accomack","latitude":"37.7195742","state":"VA","name":"Accomac","longitude":"-75.6654845"},{"county":"Alleghany","latitude":"37.7976286","state":"VA","name":"Iron Gate","longitude":"-79.7911598"},{"county":"Henrico","latitude":"37.5459791","state":"VA","name":"Highland Springs","longitude":"-77.3277568"},{"county":"Bedford","latitude":"37.3637534","state":"VA","name":"Forest","longitude":"-79.289749"},{"county":"Montgomery","latitude":"37.1298517","state":"VA","name":"Christiansburg","longitude":"-80.4089389"},{"county":"Prince George","latitude":"37.2356973","state":"VA","name":"Fort Lee","longitude":"-77.3325261"},{"county":"Wise","latitude":"37.1237146","state":"VA","name":"Pound","longitude":"-82.6012667"},{"county":"Washington","latitude":"36.791225","state":"VA","name":"Glade Spring","longitude":"-81.7712324"},{"county":"Scott","latitude":"36.6770418","state":"VA","name":"Clinchport","longitude":"-82.7421048"},{"county":"Fairfax","latitude":"38.8706678","state":"VA","name":"Pender","longitude":"-77.368875"},{"county":"Buckingham","latitude":"37.7051441","state":"VA","name":"New Canton","longitude":"-78.2994468"},{"county":"Prince William","latitude":"38.7828926","state":"VA","name":"West Gate","longitude":"-77.4974896"},{"county":"Loudoun","latitude":"39.0598305","state":"VA","name":"Lowes Island","longitude":"-77.3522073"},{"county":"Augusta","latitude":"38.2573517","state":"VA","name":"Mount Sidney","longitude":"-78.9594723"},{"county":"Accomack","latitude":"37.7673512","state":"VA","name":"Deep Creek","longitude":"-75.7527083"},{"county":"Isle of Wight","latitude":"36.7118171","state":"VA","name":"Carrsville","longitude":"-76.8260701"},{"county":"Madison","latitude":"38.4215164","state":"VA","name":"Brightwood","longitude":"-78.1936127"},{"county":"Tazewell","latitude":"37.1965051","state":"VA","name":"Springville","longitude":"-81.4028822"},{"county":"Fairfax","latitude":"38.7456701","state":"VA","name":"Wellington","longitude":"-77.055255"},{"county":"Prince William","latitude":"38.6803947","state":"VA","name":"Hoadly","longitude":"-77.3591517"},{"county":"Madison","latitude":"38.4879035","state":"VA","name":"Syria","longitude":"-78.3261152"},{"county":"Madison","latitude":"38.3667957","state":"VA","name":"Oakpark","longitude":"-78.1600014"},{"county":"Augusta","latitude":"38.3448488","state":"VA","name":"Mount Solon","longitude":"-79.085032"},{"county":"Spotsylvania","latitude":"38.2901291","state":"VA","name":"Five Mile Fork","longitude":"-77.5533201"},{"county":"Westmoreland","latitude":"38.0295744","state":"VA","name":"Kinsale","longitude":"-76.580789"},{"county":"Caroline","latitude":"38.0176363","state":"VA","name":"Ladysmith","longitude":"-77.5152606"},{"county":"Amelia","latitude":"37.3884832","state":"VA","name":"Chula","longitude":"-77.9030556"},{"county":"Smyth","latitude":"36.9273371","state":"VA","name":"Broadford","longitude":"-81.6726164"},{"county":"Stafford","latitude":"38.4220694","state":"VA","name":"Stafford","longitude":"-77.4083162"},{"county":"Albemarle","latitude":"38.1248577","state":"VA","name":"Rivanna","longitude":"-78.4608444"},{"county":"Brunswick","latitude":"36.8957039","state":"VA","name":"Warfield","longitude":"-77.8258289"},{"county":"Frederick","latitude":"39.3091788","state":"VA","name":"Lake Holiday","longitude":"-78.3245137"},{"county":"Clarke","latitude":"39.1342717","state":"VA","name":"Shenandoah Retreat","longitude":"-77.8649954"},{"county":"Warren","latitude":"38.9603876","state":"VA","name":"Shenandoah Shores","longitude":"-78.1430547"},{"county":"Prince William","latitude":"38.9037231","state":"VA","name":"Bull Run Mountain Estates","longitude":"-77.6616592"},{"county":"Henrico","latitude":"37.5234794","state":"VA","name":"Sandston","longitude":"-77.3158118"},{"county":"Manassas City","latitude":"38.7509488","state":"VA","name":"Manassas","longitude":"-77.4752667"},{"county":"Fauquier","latitude":"38.7134516","state":"VA","name":"Warrenton","longitude":"-77.7952712"},{"county":"King George","latitude":"38.3312379","state":"VA","name":"Dahlgren","longitude":"-77.0510857"},{"county":"Albemarle","latitude":"38.0695815","state":"VA","name":"Crozet","longitude":"-78.700575"},{"county":"Caroline","latitude":"38.1717974","state":"VA","name":"Port Royal","longitude":"-77.1910885"},{"county":"Northampton","latitude":"37.4748573","state":"VA","name":"Nassawadox","longitude":"-75.8582639"},{"county":"Carroll","latitude":"36.7223497","state":"VA","name":"Woodlawn","longitude":"-80.8228531"},{"county":"Mecklenburg","latitude":"36.726532","state":"VA","name":"South Hill","longitude":"-78.1288857"},{"county":"Henry","latitude":"36.6568042","state":"VA","name":"Chatmoss","longitude":"-79.8122591"},{"county":"Fairfax","latitude":"38.7101152","state":"VA","name":"Pohick","longitude":"-77.1966482"},{"county":"Rockbridge","latitude":"37.630134","state":"VA","name":"Natural Bridge","longitude":"-79.5430938"},{"county":"Nelson","latitude":"37.7770844","state":"VA","name":"Massies Mill","longitude":"-79.0011364"},{"county":"Amherst","latitude":"37.5529192","state":"VA","name":"Sweet Briar Station","longitude":"-79.0664133"},{"county":"Buckingham","latitude":"37.683478","state":"VA","name":"Arvonia","longitude":"-78.3413918"},{"county":"Tazewell","latitude":"37.2109492","state":"VA","name":"Tiptop","longitude":"-81.4339941"},{"county":"Surry","latitude":"37.1657049","state":"VA","name":"Spring Grove","longitude":"-76.9732977"},{"county":"Isle of Wight","latitude":"36.9076493","state":"VA","name":"Isle of Wight","longitude":"-76.707735"},{"county":"Southampton","latitude":"36.783761","state":"VA","name":"Sebrell","longitude":"-77.1274657"},{"county":"Chesterfield","latitude":"37.4629764","state":"VA","name":"Rockwood","longitude":"-77.5744078"},{"county":"Montgomery","latitude":"37.2098497","state":"VA","name":"Prices Fork","longitude":"-80.4900537"},{"county":"Pulaski","latitude":"36.9392893","state":"VA","name":"Allisonia","longitude":"-80.7361807"},{"county":"Halifax","latitude":"36.6873606","state":"VA","name":"Riverdale","longitude":"-78.9000097"},{"county":"King George","latitude":"38.2681837","state":"VA","name":"King George","longitude":"-77.1844222"},{"county":"Bath","latitude":"38.0462369","state":"VA","name":"Warm Springs","longitude":"-79.7906069"},{"county":"Fluvanna","latitude":"37.8609747","state":"VA","name":"Palmyra","longitude":"-78.2633373"},{"county":"Franklin","latitude":"36.9662513","state":"VA","name":"Henry Fork","longitude":"-79.870311"},{"county":"Buena Vista City","latitude":"37.7343004","state":"VA","name":"Buena Vista","longitude":"-79.3539238"},{"county":"Radford City","latitude":"37.1317924","state":"VA","name":"Radford","longitude":"-80.5764477"},{"county":"Fairfax","latitude":"38.9398329","state":"VA","name":"Wolf Trap","longitude":"-77.286094"},{"county":"Madison","latitude":"38.3804062","state":"VA","name":"Madison","longitude":"-78.2575035"},{"county":"Caroline","latitude":"38.0495789","state":"VA","name":"Bowling Green","longitude":"-77.3466468"},{"county":"Accomack","latitude":"37.8776256","state":"VA","name":"Hallwood","longitude":"-75.589094"},{"county":"Accomack","latitude":"37.9331791","state":"VA","name":"Chincoteague","longitude":"-75.3788086"},{"county":"Nottoway","latitude":"37.1876529","state":"VA","name":"Burkeville","longitude":"-78.2013859"},{"county":"Pittsylvania","latitude":"37.0926426","state":"VA","name":"Hurt","longitude":"-79.2964125"},{"county":"Southampton","latitude":"36.9040391","state":"VA","name":"Ivor","longitude":"-76.8996824"},{"county":"Henry","latitude":"36.7151372","state":"VA","name":"Collinsville","longitude":"-79.9153176"},{"county":"Spotsylvania","latitude":"38.200965","state":"VA","name":"Spotsylvania","longitude":"-77.589154"},{"county":"Westmoreland","latitude":"38.0192976","state":"VA","name":"Acorn","longitude":"-76.6491233"},{"county":"Nelson","latitude":"37.5468094","state":"VA","name":"Gladstone","longitude":"-78.8494619"},{"county":"Dickenson","latitude":"37.1026065","state":"VA","name":"McClure","longitude":"-82.3762582"},{"county":"Charlotte","latitude":"36.9298661","state":"VA","name":"Saxe","longitude":"-78.6633353"},{"county":"Charlotte","latitude":"36.9182026","state":"VA","name":"Fort Mitchell","longitude":"-78.4861068"},{"county":"Franklin","latitude":"36.8293043","state":"VA","name":"Henry","longitude":"-79.9917065"},{"county":"Wythe","latitude":"36.8512342","state":"VA","name":"Austinville","longitude":"-80.9120233"},{"county":"Washington","latitude":"36.7109367","state":"VA","name":"Mendota","longitude":"-82.3015299"},{"county":"Grayson","latitude":"36.5895679","state":"VA","name":"Mouth of Wilson","longitude":"-81.3364889"},{"county":"Fairfax","latitude":"38.8645565","state":"VA","name":"Jefferson","longitude":"-77.1877587"},{"county":"Gloucester","latitude":"37.413752","state":"VA","name":"Gloucester","longitude":"-76.5255062"},{"county":"Loudoun","latitude":"39.0181644","state":"VA","name":"Broadlands","longitude":"-77.5202688"},{"county":"Fairfax","latitude":"38.7167818","state":"VA","name":"Woodlawn","longitude":"-77.1327574"},{"county":"Montgomery","latitude":"37.2165215","state":"VA","name":"Elliston","longitude":"-80.2325427"},{"county":"Brunswick","latitude":"36.5668145","state":"VA","name":"Gasburg","longitude":"-77.8955452"},{"county":"Orange","latitude":"38.3342781","state":"VA","name":"Lake of the Woods","longitude":"-77.7598587"},{"county":"York","latitude":"37.097284","state":"VA","name":"Bethel Manor","longitude":"-76.4245335"},{"county":"Frederick","latitude":"39.0834398","state":"VA","name":"Stephens City","longitude":"-78.2180567"},{"county":"Fairfax","latitude":"38.7934466","state":"VA","name":"Burke","longitude":"-77.2716505"},{"county":"Fairfax","latitude":"38.7887246","state":"VA","name":"Rose Hill","longitude":"-77.1127569"},{"county":"Fairfax","latitude":"38.7923357","state":"VA","name":"Huntington","longitude":"-77.070811"},{"county":"Fairfax","latitude":"38.8951115","state":"VA","name":"Idylwood","longitude":"-77.2116478"},{"county":"Prince William","latitude":"38.6837271","state":"VA","name":"Occoquan","longitude":"-77.260261"},{"county":"Prince William","latitude":"38.5223434","state":"VA","name":"Quantico","longitude":"-77.2935926"},{"county":"Rockingham","latitude":"38.6131746","state":"VA","name":"Broadway","longitude":"-78.7989124"},{"county":"Campbell","latitude":"37.3206989","state":"VA","name":"Timberlake","longitude":"-79.2575251"},{"county":"Franklin","latitude":"37.1168053","state":"VA","name":"Boones Mill","longitude":"-79.9553136"},{"county":"Wythe","latitude":"36.8937299","state":"VA","name":"Rural Retreat","longitude":"-81.2759341"},{"county":"Rockbridge","latitude":"37.9062449","state":"VA","name":"Vesuvius","longitude":"-79.1972534"},{"county":"Rockbridge","latitude":"37.6209679","state":"VA","name":"Natural Bridge Station","longitude":"-79.5058705"},{"county":"King and Queen","latitude":"37.7262531","state":"VA","name":"Walkerton","longitude":"-77.0227476"},{"county":"Giles","latitude":"37.440125","state":"VA","name":"Kire","longitude":"-80.518951"},{"county":"Wythe","latitude":"36.8862308","state":"VA","name":"Crockett","longitude":"-81.1920399"},{"county":"Lee","latitude":"36.6306407","state":"VA","name":"Caylor","longitude":"-83.4943544"},{"county":"Mecklenburg","latitude":"36.5623629","state":"VA","name":"Nelson","longitude":"-78.7047266"},{"county":"Accomack","latitude":"37.7431849","state":"VA","name":"Southside Chesconessex","longitude":"-75.7785424"},{"county":"Buckingham","latitude":"37.55043144","state":"VA","name":"Buckingham","longitude":"-78.55413312"},{"county":"Loudoun","latitude":"39.0465113","state":"VA","name":"Cascades","longitude":"-77.3873019"},{"county":"Loudoun","latitude":"38.9295809","state":"VA","name":"Stone Ridge","longitude":"-77.5552291"},{"county":"Fairfax","latitude":"38.8040019","state":"VA","name":"Ravensworth","longitude":"-77.2205379"},{"county":"Fauquier","latitude":"38.8648353","state":"VA","name":"Marshall","longitude":"-77.8577726"},{"county":"Alleghany","latitude":"37.8120685","state":"VA","name":"Callaghan","longitude":"-80.0742278"},{"county":"King William","latitude":"37.7440307","state":"VA","name":"Central Garage","longitude":"-77.13164"},{"county":"Chesterfield","latitude":"37.48565","state":"VA","name":"Manchester","longitude":"-77.53442"},{"county":"Isle of Wight","latitude":"36.6833121","state":"VA","name":"Camptown","longitude":"-76.8963905"},{"county":"Mathews","latitude":"37.5043003","state":"VA","name":"Gwynn","longitude":"-76.2885527"},{"county":"Chesterfield","latitude":"37.2401503","state":"VA","name":"Ettrick","longitude":"-77.4299836"},{"county":"Pulaski","latitude":"37.1484589","state":"VA","name":"Fairlawn","longitude":"-80.5783922"},{"county":"Martinsville City","latitude":"36.6915262","state":"VA","name":"Martinsville","longitude":"-79.8725386"},{"county":"Alexandria City","latitude":"38.8048356","state":"VA","name":"Alexandria","longitude":"-77.0469214"},{"county":"Frederick","latitude":"39.0276078","state":"VA","name":"Middletown","longitude":"-78.280558"},{"county":"Shenandoah","latitude":"38.9887199","state":"VA","name":"Strasburg","longitude":"-78.358616"},{"county":"Shenandoah","latitude":"38.8817784","state":"VA","name":"Woodstock","longitude":"-78.5058429"},{"county":"Roanoke","latitude":"37.2276369","state":"VA","name":"Cave Spring","longitude":"-80.0128158"},{"county":"Tazewell","latitude":"37.0626143","state":"VA","name":"Claypool Hill","longitude":"-81.7517811"},{"county":"Isle of Wight","latitude":"36.808483","state":"VA","name":"Windsor","longitude":"-76.7441246"},{"county":"Sussex","latitude":"36.9479277","state":"VA","name":"Stony Creek","longitude":"-77.4008113"},{"county":"Halifax","latitude":"36.7659709","state":"VA","name":"Halifax","longitude":"-78.9283441"},{"county":"Smyth","latitude":"36.8348383","state":"VA","name":"Marion","longitude":"-81.5148368"},{"county":"Henry","latitude":"36.7001373","state":"VA","name":"Fieldale","longitude":"-79.9386518"},{"county":"Grayson","latitude":"36.6223478","state":"VA","name":"Independence","longitude":"-81.150923"},{"county":"Madison","latitude":"38.3476292","state":"VA","name":"Pratts","longitude":"-78.2700042"},{"county":"Albemarle","latitude":"37.9956954","state":"VA","name":"Batesville","longitude":"-78.7222417"},{"county":"Bath","latitude":"37.975128","state":"VA","name":"Millboro","longitude":"-79.6028226"},{"county":"Louisa","latitude":"37.8929198","state":"VA","name":"Apple Grove","longitude":"-77.8969398"},{"county":"Alleghany","latitude":"37.7473446","state":"VA","name":"Alleghany","longitude":"-80.2403456"},{"county":"Chesterfield","latitude":"37.345983","state":"VA","name":"Winterpock","longitude":"-77.7194395"},{"county":"Dinwiddie","latitude":"37.0387606","state":"VA","name":"DeWitt","longitude":"-77.6433239"},{"county":"Sussex","latitude":"36.8457054","state":"VA","name":"Yale","longitude":"-77.2874715"},{"county":"Augusta","latitude":"38.1979093","state":"VA","name":"New Hope","longitude":"-78.9058593"},{"county":"Nelson","latitude":"37.7923645","state":"VA","name":"Schuyler","longitude":"-78.6983501"},{"county":"Accomack","latitude":"37.5537454","state":"VA","name":"Quinby","longitude":"-75.7338172"},{"county":"Halifax","latitude":"36.7595817","state":"VA","name":"Mountain Road","longitude":"-78.9869567"},{"county":"Prince William","latitude":"38.5698417","state":"VA","name":"Cherry Hill","longitude":"-77.2669261"},{"county":"King William","latitude":"37.6873648","state":"VA","name":"King William","longitude":"-77.0135803"},{"county":"Mathews","latitude":"37.4370803","state":"VA","name":"Mathews","longitude":"-76.3199427"},{"county":"Hopewell City","latitude":"37.3043154","state":"VA","name":"Hopewell","longitude":"-77.2872001"},{"county":"Colonial Heights City","latitude":"37.244039","state":"VA","name":"Colonial Heights","longitude":"-77.4102607"},{"county":"Shenandoah","latitude":"38.7459482","state":"VA","name":"Mount Jackson","longitude":"-78.6422377"},{"county":"Augusta","latitude":"38.0990233","state":"VA","name":"Fishersville","longitude":"-78.9691923"},{"county":"Augusta","latitude":"38.0787397","state":"VA","name":"Craigsville","longitude":"-79.3830941"},{"county":"Orange","latitude":"38.2454106","state":"VA","name":"Orange","longitude":"-78.1108343"},{"county":"Spotsylvania","latitude":"38.1979096","state":"VA","name":"Spotsylvania Courthouse","longitude":"-77.5877652"},{"county":"Buckingham","latitude":"37.5429251","state":"VA","name":"Dillwyn","longitude":"-78.4572238"},{"county":"Chesterfield","latitude":"37.3568157","state":"VA","name":"Chester","longitude":"-77.4416505"},{"county":"Charlotte","latitude":"37.0404287","state":"VA","name":"Keysville","longitude":"-78.4833277"},{"county":"Floyd","latitude":"36.9112443","state":"VA","name":"Floyd","longitude":"-80.3200502"},{"county":"Sussex","latitude":"37.0359837","state":"VA","name":"Waverly","longitude":"-77.0952433"},{"county":"Essex","latitude":"38.0134681","state":"VA","name":"Champlain","longitude":"-76.9927481"},{"county":"Botetourt","latitude":"37.6165169","state":"VA","name":"Oriskany","longitude":"-79.9836613"},{"county":"Craig","latitude":"37.5690147","state":"VA","name":"Paint Bank","longitude":"-80.2620015"},{"county":"New Kent","latitude":"37.4418131","state":"VA","name":"Providence Forge","longitude":"-77.0435799"},{"county":"Buchanan","latitude":"37.2473352","state":"VA","name":"Jewell Valley","longitude":"-81.8015026"},{"county":"Campbell","latitude":"37.1462544","state":"VA","name":"Lynch Station","longitude":"-79.3008574"},{"county":"Prince Edward","latitude":"37.2751533","state":"VA","name":"Rice","longitude":"-78.291384"},{"county":"Montgomery","latitude":"37.2170696","state":"VA","name":"McCoy","longitude":"-80.5978382"},{"county":"Halifax","latitude":"36.7443032","state":"VA","name":"Ingram","longitude":"-79.1583507"},{"county":"Halifax","latitude":"36.8556946","state":"VA","name":"Crystal Hill","longitude":"-78.9088996"},{"county":"Washington","latitude":"36.6659505","state":"VA","name":"Konnarock","longitude":"-81.6381715"},{"county":"Augusta","latitude":"38.1020734","state":"VA","name":"Augusta Springs","longitude":"-79.318092"},{"county":"Accomack","latitude":"37.989957","state":"VA","name":"Captains Cove","longitude":"-75.422722"},{"county":"Warren","latitude":"38.9817756","state":"VA","name":"Shenandoah Farms","longitude":"-78.0755535"},{"county":"Albemarle","latitude":"38.0332854","state":"VA","name":"University of Virginia","longitude":"-78.5131505"},{"county":"Goochland","latitude":"37.6843129","state":"VA","name":"Goochland","longitude":"-77.885274"},{"county":"Pittsylvania","latitude":"37.0695873","state":"VA","name":"Motley","longitude":"-79.3411358"},{"county":"Prince Edward","latitude":"37.3029279","state":"VA","name":"Prospect","longitude":"-78.5591661"},{"county":"Bland","latitude":"37.1481752","state":"VA","name":"Mechanicsburg","longitude":"-80.9411919"},{"county":"Lancaster","latitude":"37.7698602","state":"VA","name":"Lancaster","longitude":"-76.4663391"},{"county":"Fairfax","latitude":"38.8009468","state":"VA","name":"Fairfax Station","longitude":"-77.3255408"},{"county":"Fairfax","latitude":"38.9370553","state":"VA","name":"Floris","longitude":"-77.4127653"},{"county":"Fairfax","latitude":"38.8341176","state":"VA","name":"George Mason","longitude":"-77.324923"},{"county":"Fairfax","latitude":"38.84745","state":"VA","name":"Woodburn","longitude":"-77.23605"},{"county":"Fauquier","latitude":"38.7673387","state":"VA","name":"New Baltimore","longitude":"-77.7283259"},{"county":"Mecklenburg","latitude":"36.599589","state":"VA","name":"Bracey","longitude":"-78.1430505"},{"county":"Spotsylvania","latitude":"38.3036435","state":"VA","name":"Lake Wilderness","longitude":"-77.7277691"},{"county":"Richmond City","latitude":"37.5537575","state":"VA","name":"Richmond","longitude":"-77.4602617"},{"county":"Poquoson City","latitude":"37.1223664","state":"VA","name":"Poquoson","longitude":"-76.3457773"},{"county":"Norton City","latitude":"36.933433","state":"VA","name":"Norton","longitude":"-82.6290459"},{"county":"Loudoun","latitude":"39.1342719","state":"VA","name":"Hamilton","longitude":"-77.662492"},{"county":"Fairfax","latitude":"38.9342776","state":"VA","name":"McLean","longitude":"-77.1774801"},{"county":"Fairfax","latitude":"38.8742786","state":"VA","name":"Merrifield","longitude":"-77.2269262"},{"county":"Fairfax","latitude":"38.735159","state":"VA","name":"Mount Vernon","longitude":"-77.095367"},{"county":"Fairfax","latitude":"38.9695545","state":"VA","name":"Herndon","longitude":"-77.3860976"},{"county":"Fairfax","latitude":"38.8909449","state":"VA","name":"West Falls Church","longitude":"-77.184425"},{"county":"Accomack","latitude":"37.8295713","state":"VA","name":"Bloxom","longitude":"-75.6232616"},{"county":"Fluvanna","latitude":"37.7529213","state":"VA","name":"Columbia","longitude":"-78.1625007"},{"county":"Dickenson","latitude":"37.1612189","state":"VA","name":"Clinchco","longitude":"-82.3598688"},{"county":"Charlotte","latitude":"37.079867","state":"VA","name":"Phenix","longitude":"-78.7477838"},{"county":"Henry","latitude":"36.8154155","state":"VA","name":"Oak Level","longitude":"-79.9355941"},{"county":"Henry","latitude":"36.5687491","state":"VA","name":"Sandy Level","longitude":"-79.7192007"},{"county":"Frederick","latitude":"39.2639911","state":"VA","name":"Gore","longitude":"-78.3319494"},{"county":"Shenandoah","latitude":"39.0551071","state":"VA","name":"Lebanon Church","longitude":"-78.3680608"},{"county":"Culpeper","latitude":"38.415961","state":"VA","name":"Lignum","longitude":"-77.8266604"},{"county":"Bath","latitude":"38.054014","state":"VA","name":"Bacova","longitude":"-79.8436647"},{"county":"Campbell","latitude":"37.1631988","state":"VA","name":"Gladys","longitude":"-79.0736301"},{"county":"Charlotte","latitude":"37.1882033","state":"VA","name":"Madisonville","longitude":"-78.6900045"},{"county":"Charlotte","latitude":"36.8554206","state":"VA","name":"Wylliesburg","longitude":"-78.5902778"},{"county":"Lunenburg","latitude":"36.9148705","state":"VA","name":"Dundas","longitude":"-78.0216678"},{"county":"Brunswick","latitude":"36.6104265","state":"VA","name":"Triplet","longitude":"-77.7658201"},{"county":"Suffolk City","latitude":"36.5882076","state":"VA","name":"Whaleyville","longitude":"-76.6846768"},{"county":"Fauquier","latitude":"38.6209547","state":"VA","name":"Opal","longitude":"-77.7999933"},{"county":"Accomack","latitude":"37.5520782","state":"VA","name":"Savage Town","longitude":"-75.8013189"},{"county":"Prince William","latitude":"38.6359523","state":"VA","name":"Independent Hill","longitude":"-77.4377636"},{"county":"Chesterfield","latitude":"37.42106","state":"VA","name":"Woodlake","longitude":"-77.67931"},{"county":"Prince George","latitude":"37.0823722","state":"VA","name":"Templeton","longitude":"-77.3549778"},{"county":"Bedford City","latitude":"37.3343079","state":"VA","name":"Bedford","longitude":"-79.5230877"},{"county":"Clarke","latitude":"39.0931617","state":"VA","name":"Boyce","longitude":"-78.0594426"},{"county":"Fairfax","latitude":"38.8478902","state":"VA","name":"Lake Barcroft","longitude":"-77.1558134"},{"county":"Fairfax","latitude":"38.7892801","state":"VA","name":"Springfield","longitude":"-77.1872036"},{"county":"Augusta","latitude":"37.981249","state":"VA","name":"Sherando","longitude":"-78.9539128"},{"county":"Accomack","latitude":"37.6492986","state":"VA","name":"Melfa","longitude":"-75.7413182"},{"county":"Hanover","latitude":"37.7590318","state":"VA","name":"Ashland","longitude":"-77.4799837"},{"county":"Botetourt","latitude":"37.3656913","state":"VA","name":"Laymantown","longitude":"-79.8575389"},{"county":"Craig","latitude":"37.5001287","state":"VA","name":"New Castle","longitude":"-80.1108815"},{"county":"Appomattox","latitude":"37.3570894","state":"VA","name":"Appomattox","longitude":"-78.8252911"},{"county":"Montgomery","latitude":"37.2295733","state":"VA","name":"Blacksburg","longitude":"-80.4139393"},{"county":"Isle of Wight","latitude":"36.9823709","state":"VA","name":"Smithfield","longitude":"-76.6310662"},{"county":"Smyth","latitude":"36.7984482","state":"VA","name":"Chilhowie","longitude":"-81.6823411"},{"county":"Carroll","latitude":"36.7626282","state":"VA","name":"Hillsville","longitude":"-80.7347947"},{"county":"King George","latitude":"38.3301262","state":"VA","name":"Fairview Beach","longitude":"-77.2472019"},{"county":"Salem City","latitude":"37.2934681","state":"VA","name":"Salem","longitude":"-80.0547626"},{"county":"Williamsburg City","latitude":"37.2707022","state":"VA","name":"Williamsburg","longitude":"-76.7074571"},{"county":"Fairfax","latitude":"38.7673362","state":"VA","name":"Groveton","longitude":"-77.0847004"},{"county":"Prince William","latitude":"38.5467876","state":"VA","name":"Triangle","longitude":"-77.3366491"},{"county":"Prince William","latitude":"38.7931699","state":"VA","name":"Yorkshire","longitude":"-77.4477662"},{"county":"Albemarle","latitude":"37.798754","state":"VA","name":"Scottsville","longitude":"-78.4955648"},{"county":"Accomack","latitude":"37.9240145","state":"VA","name":"Saxis","longitude":"-75.7218743"},{"county":"King William","latitude":"37.5315335","state":"VA","name":"West Point","longitude":"-76.7963504"},{"county":"Wise","latitude":"36.9067631","state":"VA","name":"Appalachia","longitude":"-82.7818275"},{"county":"Mecklenburg","latitude":"36.7001439","state":"VA","name":"La Crosse","longitude":"-78.0997185"},{"county":"Albemarle","latitude":"37.8901411","state":"VA","name":"Covesville","longitude":"-78.7047401"},{"county":"Essex","latitude":"37.8651379","state":"VA","name":"Pauls Crossroads","longitude":"-76.9102437"},{"county":"Fluvanna","latitude":"37.7631981","state":"VA","name":"Fork Union","longitude":"-78.2622251"},{"county":"Fairfax","latitude":"38.9512881","state":"VA","name":"McNair","longitude":"-77.4114936"},{"county":"Albemarle","latitude":"38.1170802","state":"VA","name":"Hollymead","longitude":"-78.4416772"},{"county":"Accomack","latitude":"37.8001273","state":"VA","name":"Gargatha","longitude":"-75.5979836"},{"county":"Chesterfield","latitude":"37.44882","state":"VA","name":"Meadowbrook","longitude":"-77.47353"},{"county":"Isle of Wight","latitude":"36.9468152","state":"VA","name":"Carrollton","longitude":"-76.5605078"},{"county":"Prince William","latitude":"38.6370244","state":"VA","name":"Marumsco","longitude":"-77.2618038"},{"county":"Greene","latitude":"38.2331873","state":"VA","name":"Ruckersville","longitude":"-78.369175"},{"county":"Albemarle","latitude":"38.0565268","state":"VA","name":"Ivy","longitude":"-78.5966823"},{"county":"Louisa","latitude":"38.1051372","state":"VA","name":"Blue Ridge Shores","longitude":"-78.024721"},{"county":"Campbell","latitude":"37.3426444","state":"VA","name":"Concord","longitude":"-78.9750189"},{"county":"Lexington City","latitude":"37.7840208","state":"VA","name":"Lexington","longitude":"-79.4428157"},{"county":"Fauquier","latitude":"38.8620578","state":"VA","name":"The Plains","longitude":"-77.7738827"},{"county":"Prince William","latitude":"38.698729","state":"VA","name":"Nokesville","longitude":"-77.5797119"},{"county":"Prince William","latitude":"38.6581723","state":"VA","name":"Woodbridge","longitude":"-77.2497049"},{"county":"Augusta","latitude":"38.0301356","state":"VA","name":"Stuarts Draft","longitude":"-79.0336374"},{"county":"Orange","latitude":"38.1373578","state":"VA","name":"Gordonsville","longitude":"-78.187781"},{"county":"Accomack","latitude":"37.6909641","state":"VA","name":"Onley","longitude":"-75.7160405"},{"county":"Buchanan","latitude":"37.2778886","state":"VA","name":"Grundy","longitude":"-82.0990223"},{"county":"Giles","latitude":"37.3823434","state":"VA","name":"Rich Creek","longitude":"-80.8225774"},{"county":"Russell","latitude":"36.900942","state":"VA","name":"Lebanon","longitude":"-82.0801309"},{"county":"Brunswick","latitude":"36.7576469","state":"VA","name":"Lawrenceville","longitude":"-77.8469374"},{"county":"Southampton","latitude":"36.6245955","state":"VA","name":"Newsoms","longitude":"-77.1246878"},{"county":"Mecklenburg","latitude":"36.6676413","state":"VA","name":"Boydton","longitude":"-78.3874978"},{"county":"Mecklenburg","latitude":"36.6240297","state":"VA","name":"Clarksville","longitude":"-78.5569449"},{"county":"Henry","latitude":"36.628471","state":"VA","name":"Horse Pasture","longitude":"-79.9508749"},{"county":"Warren","latitude":"38.9464994","state":"VA","name":"Riverton","longitude":"-78.1994447"},{"county":"Spotsylvania","latitude":"38.3256854","state":"VA","name":"Wilderness","longitude":"-77.7258248"},{"county":"Bath","latitude":"38.1948475","state":"VA","name":"Williamsville","longitude":"-79.5708789"},{"county":"Northumberland","latitude":"37.9979068","state":"VA","name":"Lewisetta","longitude":"-76.4627303"},{"county":"Charlotte","latitude":"37.1176477","state":"VA","name":"Cullen","longitude":"-78.6491684"},{"county":"Loudoun","latitude":"39.0376085","state":"VA","name":"Dulles Town Center","longitude":"-77.4158207"},{"county":"Loudoun","latitude":"39.0376087","state":"VA","name":"Sugarland Run","longitude":"-77.3752637"},{"county":"Fairfax","latitude":"38.6511607","state":"VA","name":"Mason Neck","longitude":"-77.1870481"},{"county":"Fairfax","latitude":"38.7466911","state":"VA","name":"South Run","longitude":"-77.2753459"},{"county":"Accomack","latitude":"37.7479071","state":"VA","name":"Bayside","longitude":"-75.71743"},{"county":"Accomack","latitude":"37.819849","state":"VA","name":"Nelsonia","longitude":"-75.58715"},{"county":"Pulaski","latitude":"37.0059537","state":"VA","name":"Draper","longitude":"-80.7472915"},{"county":"Rappahannock","latitude":"38.853447","state":"VA","name":"Chester Gap","longitude":"-78.134999"},{"county":"Pittsylvania","latitude":"36.6798596","state":"VA","name":"Blairs","longitude":"-79.3730788"},{"county":"Fairfax","latitude":"38.7853915","state":"VA","name":"Belle Haven","longitude":"-77.063033"},{"county":"Fairfax","latitude":"38.9981653","state":"VA","name":"Great Falls","longitude":"-77.2883157"},{"county":"Accomack","latitude":"37.6192992","state":"VA","name":"Keller","longitude":"-75.7638185"},{"county":"Lancaster","latitude":"37.6615258","state":"VA","name":"Irvington","longitude":"-76.4191143"},{"county":"Botetourt","latitude":"37.5273566","state":"VA","name":"Buchanan","longitude":"-79.6797614"},{"county":"Henrico","latitude":"37.5207021","state":"VA","name":"Montrose","longitude":"-77.3783141"},{"county":"Franklin","latitude":"36.9823655","state":"VA","name":"Penhook","longitude":"-79.6280848"},{"county":"Wise","latitude":"36.881764","state":"VA","name":"Big Stone Gap","longitude":"-82.7471049"},{"county":"Wythe","latitude":"36.9703976","state":"VA","name":"Max Meadows","longitude":"-80.9495251"},{"county":"Carroll","latitude":"36.6659641","state":"VA","name":"Fancy Gap","longitude":"-80.6922924"},{"county":"Henry","latitude":"36.6887485","state":"VA","name":"Laurel Park","longitude":"-79.8005918"},{"county":"Henry","latitude":"36.6973595","state":"VA","name":"Villa Heights","longitude":"-79.9039285"},{"county":"Grayson","latitude":"36.7022416","state":"VA","name":"Troutdale","longitude":"-81.4413331"},{"county":"Loudoun","latitude":"39.0846088","state":"VA","name":"Lansdowne","longitude":"-77.4836909"},{"county":"Fairfax","latitude":"38.8302582","state":"VA","name":"Long Branch","longitude":"-77.2713186"},{"county":"Fairfax","latitude":"38.8230396","state":"VA","name":"Wakefield","longitude":"-77.240669"},{"county":"Accomack","latitude":"37.5518007","state":"VA","name":"Cats Bridge","longitude":"-75.7818739"},{"county":"Pulaski","latitude":"37.1334586","state":"VA","name":"New River","longitude":"-80.5914486"},{"county":"Warren","latitude":"38.9242777","state":"VA","name":"Apple Mountain Lake","longitude":"-78.1013873"},{"county":"Bedford","latitude":"37.5337491","state":"VA","name":"Big Island","longitude":"-79.3597541"},{"county":"Chesterfield","latitude":"37.3307042","state":"VA","name":"Enon","longitude":"-77.3227571"},{"county":"Prince George","latitude":"37.2204272","state":"VA","name":"Prince George","longitude":"-77.288033"},{"county":"Russell","latitude":"36.9784384","state":"VA","name":"Dante","longitude":"-82.2976424"},{"county":"Loudoun","latitude":"39.1867705","state":"VA","name":"Waterford","longitude":"-77.6099904"},{"county":"Fauquier","latitude":"38.5017919","state":"VA","name":"Morrisville","longitude":"-77.6999905"},{"county":"Highland","latitude":"38.3237335","state":"VA","name":"Mustoe","longitude":"-79.6403268"},{"county":"Spotsylvania","latitude":"38.2273552","state":"VA","name":"Paytes","longitude":"-77.8327719"},{"county":"Spotsylvania","latitude":"38.1456902","state":"VA","name":"Brokenburg","longitude":"-77.7188798"},{"county":"Caroline","latitude":"38.023191","state":"VA","name":"Milford","longitude":"-77.3733137"},{"county":"Caroline","latitude":"38.1437433","state":"VA","name":"Guinea","longitude":"-77.4377606"},{"county":"Rockbridge","latitude":"37.8792991","state":"VA","name":"Fairfield","longitude":"-79.2894784"},{"county":"Craig","latitude":"37.4292967","state":"VA","name":"Abbott","longitude":"-80.1394911"},{"county":"Bedford","latitude":"37.3587528","state":"VA","name":"Goode","longitude":"-79.391696"},{"county":"Prince Edward","latitude":"37.1032078","state":"VA","name":"Meherrin","longitude":"-78.366662"},{"county":"Wise","latitude":"36.9531519","state":"VA","name":"Stonega","longitude":"-82.7912719"},{"county":"Pittsylvania","latitude":"36.6195823","state":"VA","name":"Brosville","longitude":"-79.6019743"},{"county":"Dinwiddie","latitude":"37.0779277","state":"VA","name":"Dinwiddie","longitude":"-77.586655"},{"county":"Harrisonburg City","latitude":"38.4495688","state":"VA","name":"Harrisonburg","longitude":"-78.8689156"},{"county":"Fairfax","latitude":"38.8184463","state":"VA","name":"Lincolnia","longitude":"-77.1433132"},{"county":"Fairfax","latitude":"38.7726136","state":"VA","name":"West Springfield","longitude":"-77.2210938"},{"county":"Essex","latitude":"37.9254135","state":"VA","name":"Tappahannock","longitude":"-76.8591301"},{"county":"Accomack","latitude":"37.585411","state":"VA","name":"Painter","longitude":"-75.7849299"},{"county":"Accomack","latitude":"37.8262373","state":"VA","name":"Tangier","longitude":"-75.9916035"},{"county":"Henrico","latitude":"37.5809789","state":"VA","name":"East Highland Park","longitude":"-77.4069263"},{"county":"York","latitude":"37.2387556","state":"VA","name":"Yorktown","longitude":"-76.5096731"},{"county":"Tazewell","latitude":"37.1148374","state":"VA","name":"Tazewell","longitude":"-81.5195548"},{"county":"Franklin","latitude":"36.9229159","state":"VA","name":"Ferrum","longitude":"-80.0133712"},{"county":"Russell","latitude":"36.9437185","state":"VA","name":"Cleveland","longitude":"-82.1518012"},{"county":"Halifax","latitude":"36.6987493","state":"VA","name":"South Boston","longitude":"-78.9013987"},{"county":"Smyth","latitude":"36.7892824","state":"VA","name":"Adwolf","longitude":"-81.5820609"},{"county":"Scott","latitude":"36.7189846","state":"VA","name":"Duffield","longitude":"-82.795995"},{"county":"Henry","latitude":"36.7443037","state":"VA","name":"Stanleytown","longitude":"-79.962819"},{"county":"Grayson","latitude":"36.7162368","state":"VA","name":"Fries","longitude":"-80.9786923"},{"county":"King and Queen","latitude":"37.4873662","state":"VA","name":"Gressitt","longitude":"-76.707736"},{"county":"Amelia","latitude":"37.2943183","state":"VA","name":"Jetersville","longitude":"-78.0941667"},{"county":"York","latitude":"37.1981994","state":"VA","name":"Seaford","longitude":"-76.4330032"},{"county":"Halifax","latitude":"36.6765266","state":"VA","name":"Elmo","longitude":"-79.1222379"},{"county":"Nelson","latitude":"37.7237531","state":"VA","name":"Shipman","longitude":"-78.839187"},{"county":"Warren","latitude":"38.9231666","state":"VA","name":"Skyland Estates","longitude":"-78.0822202"},{"county":"Prince William","latitude":"38.6459507","state":"VA","name":"Potomac Mills","longitude":"-77.2941499"},{"county":"Caroline","latitude":"38.0170428","state":"VA","name":"Lake Land'Or","longitude":"-77.5593405"},{"county":"Staunton City","latitude":"38.149576","state":"VA","name":"Staunton","longitude":"-79.0716958"},{"county":"Roanoke","latitude":"37.2809707","state":"VA","name":"Vinton","longitude":"-79.8969819"},{"county":"Fairfax","latitude":"38.8403909","state":"VA","name":"Centreville","longitude":"-77.4288769"},{"county":"Fairfax","latitude":"38.9687213","state":"VA","name":"Reston","longitude":"-77.3410958"},{"county":"Prince William","latitude":"38.7598381","state":"VA","name":"Linton Hall","longitude":"-77.5749905"},{"county":"Rockingham","latitude":"38.2673516","state":"VA","name":"Grottoes","longitude":"-78.8258584"},{"county":"Louisa","latitude":"38.010695","state":"VA","name":"Mineral","longitude":"-77.9086068"},{"county":"Botetourt","latitude":"37.4098559","state":"VA","name":"Daleville","longitude":"-79.9125409"},{"county":"Chesterfield","latitude":"37.4218149","state":"VA","name":"Bellwood","longitude":"-77.4374834"},{"county":"Prince Edward","latitude":"37.241567","state":"VA","name":"Hampden-Sydney","longitude":"-78.4692292"},{"county":"Dinwiddie","latitude":"36.9868155","state":"VA","name":"McKenney","longitude":"-77.7230492"},{"county":"Pulaski","latitude":"37.0478982","state":"VA","name":"Pulaski","longitude":"-80.7797935"},{"county":"Surry","latitude":"37.045428","state":"VA","name":"Dendron","longitude":"-76.9360723"},{"county":"Isle of Wight","latitude":"37.0668149","state":"VA","name":"Rushmere","longitude":"-76.6763455"},{"county":"Halifax","latitude":"36.7573604","state":"VA","name":"Scottsburg","longitude":"-78.7897293"},{"county":"Scott","latitude":"36.6378774","state":"VA","name":"Gate City","longitude":"-82.5809876"},{"county":"Prince William","latitude":"38.7228946","state":"VA","name":"Bristow","longitude":"-77.5361005"},{"county":"Louisa","latitude":"37.9620844","state":"VA","name":"Buckner","longitude":"-77.77277"},{"county":"Lancaster","latitude":"37.7776389","state":"VA","name":"Lively","longitude":"-76.513563"},{"county":"Buckingham","latitude":"37.4940341","state":"VA","name":"Toga","longitude":"-78.6333408"},{"county":"Gloucester","latitude":"37.39792","state":"VA","name":"Bellamy","longitude":"-76.5724526"},{"county":"Pittsylvania","latitude":"36.8201391","state":"VA","name":"Callands","longitude":"-79.5866965"},{"county":"Albemarle","latitude":"38.040972","state":"VA","name":"University Heights","longitude":"-78.5222352"},{"county":"Albemarle","latitude":"38.0748596","state":"VA","name":"Commonwealth","longitude":"-78.4872341"},{"county":"Stafford","latitude":"38.3489661","state":"VA","name":"Southern Gateway","longitude":"-77.5036729"},{"county":"Nelson","latitude":"37.8848619","state":"VA","name":"Wintergreen","longitude":"-78.8994672"},{"county":"Accomack","latitude":"37.9695672","state":"VA","name":"Horntown","longitude":"-75.463812"},{"county":"Accomack","latitude":"37.7498509","state":"VA","name":"Pastoria","longitude":"-75.6302066"},{"county":"Montgomery","latitude":"37.236244","state":"VA","name":"Lafayette","longitude":"-80.2114312"},{"county":"Brunswick","latitude":"36.578758","state":"VA","name":"Ebony","longitude":"-77.9908262"},{"county":"Washington","latitude":"36.7728907","state":"VA","name":"Emory","longitude":"-81.8362343"},{"county":"Roanoke City","latitude":"37.2709704","state":"VA","name":"Roanoke","longitude":"-79.9414267"},{"county":"Halifax","latitude":"36.5434739","state":"VA","name":"Virgilina","longitude":"-78.7750062"},{"county":"Loudoun","latitude":"39.1367717","state":"VA","name":"Purcellville","longitude":"-77.7147153"},{"county":"Fairfax","latitude":"38.8503902","state":"VA","name":"Bailey's Crossroads","longitude":"-77.1297016"},{"county":"Prince William","latitude":"38.6109522","state":"VA","name":"Montclair","longitude":"-77.3397058"},{"county":"Rockingham","latitude":"38.4079042","state":"VA","name":"Elkton","longitude":"-78.6236277"},{"county":"Henrico","latitude":"37.6504234","state":"VA","name":"Short Pump","longitude":"-77.6124888"},{"county":"Chesterfield","latitude":"37.4468146","state":"VA","name":"Bensley","longitude":"-77.4433169"},{"county":"Tazewell","latitude":"37.0876141","state":"VA","name":"Cedar Bluff","longitude":"-81.7590032"},{"county":"Pittsylvania","latitude":"36.8256943","state":"VA","name":"Chatham","longitude":"-79.3980806"},{"county":"Brunswick","latitude":"36.7065338","state":"VA","name":"Brodnax","longitude":"-78.0313851"},{"county":"Lee","latitude":"36.8589817","state":"VA","name":"Keokee","longitude":"-82.9040517"},{"county":"Scott","latitude":"36.752879","state":"VA","name":"Nickelsville","longitude":"-82.4145931"},{"county":"Loudoun","latitude":"38.9120559","state":"VA","name":"Pleasant Valley","longitude":"-77.4758229"},{"county":"Rockingham","latitude":"38.6601172","state":"VA","name":"Fulks Run","longitude":"-78.9061381"},{"county":"Culpeper","latitude":"38.637065","state":"VA","name":"Jeffersonton","longitude":"-77.9149952"},{"county":"Caroline","latitude":"37.9890245","state":"VA","name":"Central Point","longitude":"-77.1321968"},{"county":"Caroline","latitude":"37.9287494","state":"VA","name":"Ruther Glen","longitude":"-77.4558151"},{"county":"Washington","latitude":"36.8020541","state":"VA","name":"Brumley Gap","longitude":"-82.026795"},{"county":"Patrick","latitude":"36.7168026","state":"VA","name":"Vesta","longitude":"-80.357837"},{"county":"Grayson","latitude":"36.6015078","state":"VA","name":"Whitetop","longitude":"-81.6256692"},{"county":"Fauquier","latitude":"38.6320651","state":"VA","name":"Calverton","longitude":"-77.6705462"},{"county":"Accomack","latitude":"37.9251251","state":"VA","name":"Sanford","longitude":"-75.6643731"},{"county":"Frederick","latitude":"39.1974864","state":"VA","name":"Shawneeland","longitude":"-78.346308"},{"county":"Rockingham","latitude":"38.452714","state":"VA","name":"Belmont Estates","longitude":"-78.919788"},{"county":"Greene","latitude":"38.24927","state":"VA","name":"Twin Lakes","longitude":"-78.44378"},{"county":"Caroline","latitude":"37.9855668","state":"VA","name":"Lake Caroline","longitude":"-77.524391"},{"county":"Middlesex","latitude":"37.5548568","state":"VA","name":"Deltaville","longitude":"-76.3368883"},{"county":"Surry","latitude":"37.1837592","state":"VA","name":"Scotland","longitude":"-76.7863485"},{"county":"Southampton","latitude":"36.7759833","state":"VA","name":"Sedley","longitude":"-76.9841283"},{"county":"Prince William","latitude":"38.8120591","state":"VA","name":"Haymarket","longitude":"-77.6363806"},{"county":"Accomack","latitude":"37.5543003","state":"VA","name":"Belle Haven","longitude":"-75.8204861"},{"county":"Alleghany","latitude":"37.8065165","state":"VA","name":"Selma","longitude":"-79.8481067"},{"county":"Amherst","latitude":"37.4309757","state":"VA","name":"Madison Heights","longitude":"-79.1230795"},{"county":"Botetourt","latitude":"37.3784694","state":"VA","name":"Blue Ridge","longitude":"-79.8069828"},{"county":"Henrico","latitude":"37.5901463","state":"VA","name":"Tuckahoe","longitude":"-77.5563761"},{"county":"Gloucester","latitude":"37.2540329","state":"VA","name":"Gloucester Point","longitude":"-76.4968948"},{"county":"Giles","latitude":"37.3195684","state":"VA","name":"Pembroke","longitude":"-80.6389541"},{"county":"Prince Edward","latitude":"37.3020965","state":"VA","name":"Farmville","longitude":"-78.3919402"},{"county":"Dickenson","latitude":"37.1501067","state":"VA","name":"Clintwood","longitude":"-82.4559846"},{"county":"Russell","latitude":"36.8901047","state":"VA","name":"Castlewood","longitude":"-82.2795854"},{"county":"Prince William","latitude":"38.6881733","state":"VA","name":"Brentsville","longitude":"-77.4960991"},{"county":"Orange","latitude":"38.2598551","state":"VA","name":"Unionville","longitude":"-77.9683307"},{"county":"Botetourt","latitude":"37.6406864","state":"VA","name":"Eagle Rock","longitude":"-79.8011563"},{"county":"Prince George","latitude":"37.1243164","state":"VA","name":"Disputanta","longitude":"-77.2258062"},{"county":"Henry","latitude":"36.659582","state":"VA","name":"Axton","longitude":"-79.711978"},{"county":"Nelson","latitude":"37.6840306","state":"VA","name":"Arrington","longitude":"-78.9011326"},{"county":"Accomack","latitude":"37.7409625","state":"VA","name":"Greenbush","longitude":"-75.6810405"},{"county":"Accomack","latitude":"37.8129046","state":"VA","name":"Modest Town","longitude":"-75.5649275"},{"county":"Halifax","latitude":"36.9348619","state":"VA","name":"Nathalie","longitude":"-78.9472347"}]