[{"id":8424,"obdb_id":"ardent-craft-ales-richmond","name":"Ardent Craft Ales","brewery_type":"micro","street":"3200 W Leigh St","address_2":null,"address_3":null,"city":"Richmond","state":"Virginia","county_province":null,"postal_code":"23230-4410","country":"United States","longitude":"-77.47201237","latitude":"37.5684425","phone":"8043591605","website_url":"http://www.ardentcraftales.com","updated_at":"2018-07-24T00:00:00.000Z","created_at":"2018-07-24T00:00:00.000Z"},{"id":8683,"obdb_id":"basic-city-beer-co-southside-rva-richmond","name":"Basic City Beer Co. (Southside RVA)","brewery_type":"micro","street":"212 W 6th St","address_2":null,"address_3":null,"city":"Richmond","state":"Virginia","county_province":null,"postal_code":"23224","country":"United States","longitude":null,"latitude":null,"phone":"8044474735","website_url":"https://www.basiccitybeer.com/rva-map","updated_at":"2018-07-24T00:00:00.000Z","created_at":"2018-07-24T00:00:00.000Z"},{"id":8925,"obdb_id":"bingo-beer-company-richmond","name":"Bingo Beer Company","brewery_type":"planning","street":"2900 W Broad St","address_2":null,"address_3":null,"city":"Richmond","state":"Virginia","county_province":null,"postal_code":"23230","country":"United States","longitude":null,"latitude":null,"phone":"8043975226","website_url":"http://www.bingorva.com/","updated_at":"2018-07-24T00:00:00.000Z","created_at":"2018-07-24T00:00:00.000Z"},{"id":9544,"obdb_id":"canon-draw-brewing-company-richmond","name":"Canon & Draw Brewing Company","brewery_type":"micro","street":"1527 W Main St","address_2":null,"address_3":null,"city":"Richmond","state":"Virginia","county_province":null,"postal_code":"23220","country":"United States","longitude":"-77.46012854","latitude":"37.54707897","phone":"8043530536","website_url":"http://www.canonanddraw.beer","updated_at":"2018-07-24T00:00:00.000Z","created_at":"2018-07-24T00:00:00.000Z"},{"id":9599,"obdb_id":"castleburg-brewery-richmond","name":"Castleburg Brewery","brewery_type":"micro","street":"1626 Ownby Ln","address_2":null,"address_3":null,"city":"Richmond","state":"Virginia","county_province":null,"postal_code":"23220-1317","country":"United States","longitude":null,"latitude":null,"phone":"8043531256","website_url":"http://www.castleburgbrewery.com","updated_at":"2018-07-24T00:00:00.000Z","created_at":"2018-07-24T00:00:00.000Z"},{"id":10239,"obdb_id":"dogtown-brewing-richmond","name":"Dogtown Brewing","brewery_type":"brewpub","street":"1209 Hull St","address_2":null,"address_3":null,"city":"Richmond","state":"Virginia","county_province":null,"postal_code":"23224","country":"United States","longitude":null,"latitude":null,"phone":"8047242337","website_url":"https://www.dogtownbrewingco.com/","updated_at":"2018-07-24T00:00:00.000Z","created_at":"2018-07-24T00:00:00.000Z"},{"id":10920,"obdb_id":"garden-grove-brewing-company-richmond","name":"Garden Grove Brewing Company","brewery_type":"micro","street":"3445 W Cary St","address_2":null,"address_3":null,"city":"Richmond","state":"Virginia","county_province":null,"postal_code":"23221-2726","country":"United States","longitude":"-77.48597999","latitude":"37.55495022","phone":"8043386029","website_url":"http://www.gardengrovebrewing.com","updated_at":"2018-07-24T00:00:00.000Z","created_at":"2018-07-24T00:00:00.000Z"},{"id":11331,"obdb_id":"hardywood-park-craft-brewery-richmond","name":"Hardywood Park Craft Brewery","brewery_type":"micro","street":"2408 Ownby Ln","address_2":null,"address_3":null,"city":"Richmond","state":"Virginia","county_province":null,"postal_code":"23220-1319","country":"United States","longitude":null,"latitude":null,"phone":"8044202420","website_url":"http://www.hardywood.com","updated_at":"2018-07-24T00:00:00.000Z","created_at":"2018-07-24T00:00:00.000Z"},{"id":11332,"obdb_id":"hardywood-west-creek-richmond","name":"Hardywood West Creek","brewery_type":"micro","street":"820 Sanctuary Trail Dr","address_2":null,"address_3":null,"city":"Richmond","state":"Virginia","county_province":null,"postal_code":"23238","country":"United States","longitude":null,"latitude":null,"phone":"8044183548","website_url":"http://hardywood.com/visit-us/westcreek/","updated_at":"2018-07-24T00:00:00.000Z","created_at":"2018-07-24T00:00:00.000Z"},{"id":11784,"obdb_id":"isley-brewing-company-richmond","name":"Isley Brewing Company","brewery_type":"micro","street":"1715 Summit Ave","address_2":null,"address_3":null,"city":"Richmond","state":"Virginia","county_province":null,"postal_code":"23230-4515","country":"United States","longitude":"-77.46838631","latitude":"37.56890085","phone":"8047162132","website_url":"http://www.isleybrewingcompany.com","updated_at":"2018-07-24T00:00:00.000Z","created_at":"2018-07-24T00:00:00.000Z"},{"id":11963,"obdb_id":"kindred-spirit-brewing-richmond","name":"Kindred Spirit Brewing","brewery_type":"brewpub","street":"12830 West Creek Pkwy Ste J","address_2":null,"address_3":null,"city":"Richmond","state":"Virginia","county_province":null,"postal_code":"23238-1126","country":"United States","longitude":null,"latitude":null,"phone":"8047080309","website_url":"http://www.kindredspiritbrewing.com","updated_at":"2018-07-24T00:00:00.000Z","created_at":"2018-07-24T00:00:00.000Z"},{"id":12150,"obdb_id":"legend-brewing-co-richmond","name":"Legend Brewing Co","brewery_type":"micro","street":"321 W 7th St","address_2":null,"address_3":null,"city":"Richmond","state":"Virginia","county_province":null,"postal_code":"23224-2307","country":"United States","longitude":"-77.4429749","latitude":"37.5266924","phone":"8042328871","website_url":"http://www.legendbrewing.com","updated_at":"2018-07-24T00:00:00.000Z","created_at":"2018-07-24T00:00:00.000Z"},{"id":12446,"obdb_id":"main-line-brewery-richmond","name":"Main Line Brewery","brewery_type":"micro","street":"1603 Ownby Ln","address_2":null,"address_3":null,"city":"Richmond","state":"Virginia","county_province":null,"postal_code":"23220","country":"United States","longitude":null,"latitude":null,"phone":"8043879670","website_url":"https://mainlinerva.com/","updated_at":"2020-10-23T00:00:00.000Z","created_at":"2020-10-23T00:00:00.000Z"},{"id":13818,"obdb_id":"richbrau-brewing-richmond","name":"Richbrau Brewing","brewery_type":"micro","street":"5 S 20th St","address_2":null,"address_3":null,"city":"Richmond","state":"Virginia","county_province":null,"postal_code":"23223","country":"United States","longitude":null,"latitude":null,"phone":"8046214100","website_url":"https://www.richbraubrewing.com/","updated_at":"2020-10-23T00:00:00.000Z","created_at":"2020-10-23T00:00:00.000Z"},{"id":13923,"obdb_id":"rock-bottom-brewery-short-pump-richmond","name":"Rock Bottom Brewery -Short Pump","brewery_type":"brewpub","street":"11800 W Broad St Ste 2098","address_2":null,"address_3":null,"city":"Richmond","state":"Virginia","county_province":null,"postal_code":"23233-7909","country":"United States","longitude":null,"latitude":null,"phone":"8042371684","website_url":"https://rockbottom.com/locations/richmond/","updated_at":"2018-07-24T00:00:00.000Z","created_at":"2018-07-24T00:00:00.000Z"},{"id":14645,"obdb_id":"stone-brewing-co-richmond-richmond","name":"Stone Brewing Co- Richmond","brewery_type":"regional","street":"4300 Williamsburg Ave","address_2":null,"address_3":null,"city":"Richmond","state":"Virginia","county_province":null,"postal_code":"23231-1225","country":"United States","longitude":"-77.414763","latitude":"37.5241103","phone":"8044895902","website_url":"http://www.stonebrewing.com/visit/outposts/richmond","updated_at":"2018-07-24T00:00:00.000Z","created_at":"2018-07-24T00:00:00.000Z"},{"id":14688,"obdb_id":"strangeways-brewing-rva-richmond","name":"Strangeways Brewing - RVA","brewery_type":"micro","street":"2277 Dabney Rd Ste A","address_2":null,"address_3":null,"city":"Richmond","state":"Virginia","county_province":null,"postal_code":"23230-3335","country":"United States","longitude":null,"latitude":null,"phone":"8043034336","website_url":"http://strangewaysbrewing.com/","updated_at":"2018-07-24T00:00:00.000Z","created_at":"2018-07-24T00:00:00.000Z"},{"id":14777,"obdb_id":"tabol-brewing-richmond","name":"Tabol Brewing","brewery_type":"planning","street":"704 Dawn St","address_2":null,"address_3":null,"city":"Richmond","state":"Virginia","county_province":null,"postal_code":"23222","country":"United States","longitude":null,"latitude":null,"phone":"8043035528","website_url":"http://tabolbrewing.com/taste","updated_at":"2018-07-24T00:00:00.000Z","created_at":"2018-07-24T00:00:00.000Z"},{"id":14886,"obdb_id":"the-answer-brewpub-richmond","name":"The Answer Brewpub","brewery_type":"brewpub","street":"6008 W Broad St","address_2":null,"address_3":null,"city":"Richmond","state":"Virginia","county_province":null,"postal_code":"23230-2222","country":"United States","longitude":"-77.5070979","latitude":"37.5931962","phone":"8042821248","website_url":"http://www.theanswerbrewpub.com","updated_at":"2018-07-24T00:00:00.000Z","created_at":"2018-07-24T00:00:00.000Z"},{"id":15046,"obdb_id":"the-veil-brewing-company-richmond","name":"The Veil Brewing Company","brewery_type":"micro","street":"1301 Roseneath Rd","address_2":null,"address_3":null,"city":"Richmond","state":"Virginia","county_province":null,"postal_code":"23230-4623","country":"United States","longitude":"-77.4753435","latitude":"37.56830695","phone":null,"website_url":"http://www.theveilbrewing.com","updated_at":"2018-07-24T00:00:00.000Z","created_at":"2018-07-24T00:00:00.000Z"}]